Shop ID,Name,Owner Name,City,State,Latitude,Longitude,Past Performance Score (0-100),Rice Capacity (kg),Rice Current Inventory (kg),Rice Price (INR/kg),Wheat Capacity (kg),Wheat Current Inventory (kg),Wheat Price (INR/kg),Dal Capacity (kg),Dal Current Inventory (kg),Dal Price (INR/kg),Sugar Capacity (kg),Sugar Current Inventory (kg),Sugar Price (INR/kg),Oil Capacity (kg),Oil Current Inventory (kg),Oil Price (INR/kg)
1,"Choudhury, Bakshi and Maharaj",Vincent Venkatesh,Jaipur,Rajasthan,26.91224421989291,75.74599202880874,88,2374,84,78.02,1595,380,23.89,3007,397,38.11,677,160,41.93,3537,361,72.3
2,Kapoor and Sons,Kashish Shanker,Kolkata,West Bengal,22.581284111802088,88.38844394741844,78,2178,450,48.83,2282,304,55.84,3463,111,58.46,4428,190,29.08,661,278,42.25
3,"Chaudry, Chahal and Sami",Girish Tiwari,Mumbai,Maharashtra,19.082445854252263,72.86557726259514,64,1115,44,26.97,3757,224,55.65,3928,205,59.91,3115,24,29.12,4725,429,57.83
4,Balan Inc,Meera Borde,Chennai,Tamil Nadu,13.069008229639865,80.28529172413316,92,2249,135,36.17,2497,306,91.65,3875,130,37.21,2113,419,47.81,2450,112,87.73
5,Kaul PLC,Radhika De,Delhi,Delhi,28.588335315546466,77.2088247697849,57,4325,342,63.64,2061,187,30.09,4455,368,41.75,3340,151,81.03,4820,29,46.84
6,"Bala, Issac and Saini",Bishakha Lal,Kolkata,West Bengal,22.58317748193569,88.3376226791736,70,4688,15,36.56,4506,69,29.86,4205,109,33.58,3447,94,68.64,2281,322,62.04
7,Sen PLC,Maya Narain,Kolkata,West Bengal,22.545133279771253,88.35043568196741,88,2977,332,63.52,2175,292,31.8,3905,369,77.48,2274,441,28.21,1977,475,74.37
8,Ahuja-Dutta,Sneha Magar,Hyderabad,Telangana,17.420081751783616,78.44548876245402,68,4005,194,38.53,1622,286,22.38,4538,66,81.61,4371,422,88.18,3530,160,80.36
9,"Sami, Oak and Mall",Falan Jain,Ahmedabad,Gujarat,23.062176542462645,72.52942337456616,72,3975,495,87.91,4481,481,25.74,1552,381,56.99,581,45,68.11,4486,233,33.91
10,Kale LLC,Ikbal Dugal,Bangalore,Karnataka,12.923424248142837,77.61429614623664,60,1635,8,51.78,1801,168,72.79,1213,85,77.13,1345,460,96.87,606,386,65.21
11,Chanda Group,Nitesh Sengupta,Ahmedabad,Gujarat,22.983703890216805,72.56118555990457,60,4500,315,39.64,1443,61,54.53,3388,274,78.87,3309,137,73.61,3168,452,92.98
12,Parmer LLC,Dipta Ray,Hyderabad,Telangana,17.33553000063976,78.53420671629452,73,874,333,84.99,1445,348,81.09,1187,226,31.06,1716,470,34.01,1664,376,97.47
13,"Lalla, Bassi and Sharaf",Ishita Johal,Ahmedabad,Gujarat,23.04478960966218,72.60348614731534,85,706,332,47.43,1100,441,99.41,829,459,97.29,3760,465,57.9,1657,338,72.49
14,"Dash, Radhakrishnan and Brar",Darika Sheth,Delhi,Delhi,28.619576289301396,77.21616126894699,89,1819,326,28.92,3200,13,72.72,2246,437,85.68,3645,287,71.88,2746,169,98.69
15,"Memon, Pathak and Handa",Jagdish Chana,Bangalore,Karnataka,13.005458255870263,77.56510775601494,73,1641,14,65.63,1917,163,24.04,1707,324,36.36,2763,352,22.26,1166,317,65.66
16,"Boase, Bath and Kari",Daksha Baria,Lucknow,Uttar Pradesh,26.829067923640423,80.93874364386164,52,3190,326,66.53,2024,419,28.37,2642,9,34.89,2837,163,21.19,2626,185,55.41
17,Buch-Kaul,Falak Divan,Mumbai,Maharashtra,19.09962471836985,72.88068400231812,71,3755,101,77.18,4266,244,90.48,1284,488,30.05,944,411,30.35,3441,56,64.13
18,Rai LLC,Yuvraj Parekh,Mumbai,Maharashtra,19.087062004244164,72.85656305532403,51,589,225,39.22,750,334,62.2,3196,416,31.07,1422,399,40.13,1011,239,29.26
19,Patla-Gaba,Yochana Bawa,Chennai,Tamil Nadu,13.083310395635936,80.3139014342257,73,4608,424,55.5,2044,7,85.99,4320,396,79.85,4788,15,54.36,749,256,52.14
20,Pant-Kadakia,Abha Ghosh,Bangalore,Karnataka,12.926782353682244,77.57826042781939,93,3520,277,42.59,578,153,88.53,4218,383,57.57,4884,17,59.0,1388,357,56.67
21,"Loke, Bora and Garg",Nidhi Sethi,Lucknow,Uttar Pradesh,26.851560311793815,80.9510921979889,79,2357,407,26.48,3623,35,94.21,3193,354,82.63,3130,135,31.04,1523,200,87.89
22,"Konda, Gade and Shere",Girindra Shere,Delhi,Delhi,28.596135384497472,77.23998744458547,87,1304,112,90.13,1397,47,95.99,1125,434,79.7,1667,489,73.87,1099,443,80.69
23,Madan-Kanda,Logan Dara,Mumbai,Maharashtra,19.039882477344204,72.82797108994144,51,1444,484,78.31,725,84,64.39,4734,287,68.37,4463,463,67.69,3522,324,68.11
24,"Nair, Bhalla and Karnik",David Kapadia,Jaipur,Rajasthan,26.921963874060786,75.78445761885501,70,3289,427,44.12,1709,27,47.28,4208,458,74.91,3941,246,43.56,3030,314,47.78
25,Mutti Group,Rudra Rattan,Pune,Maharashtra,18.549828944996644,73.81736992501135,82,4375,0,67.95,2678,195,96.95,1261,111,21.47,4012,247,21.09,3383,301,34.96
26,Bhatti-Kakar,Frado Lad,Chennai,Tamil Nadu,13.115761940778773,80.31720269106665,61,2110,265,36.1,3179,445,63.79,4479,485,44.94,1395,330,26.21,2564,105,47.82
27,"Murty, Kala and Tata",Anthony Bhattacharyya,Chennai,Tamil Nadu,13.105786747520366,80.31453404568211,71,3423,490,91.22,3385,207,25.14,4029,23,71.03,4222,197,51.34,2258,289,74.38
28,Shanker-Dhar,Sachi Dave,Bangalore,Karnataka,12.928249626736678,77.618712064929,93,4382,207,29.19,3306,469,71.42,2055,290,20.75,2560,0,32.32,4069,100,41.04
29,Dewan-Koshy,Garima Das,Kolkata,West Bengal,22.52740946439641,88.39205144817514,74,3721,109,20.31,1203,203,67.01,4133,338,22.64,3534,189,50.15,1742,96,54.15
30,"Yohannan, Lall and Sangha",Triya Bedi,Jaipur,Rajasthan,26.937450192476533,75.81725371309196,98,4891,199,60.16,3044,463,91.66,1175,325,88.15,2887,380,70.25,4829,152,50.94
31,"Rastogi, Pathak and Kanda",Rachita Rana,Bangalore,Karnataka,12.9380265797931,77.62605747202313,76,2887,439,66.65,2870,306,72.25,4687,167,74.72,2397,459,63.78,2795,425,81.25
32,Upadhyay Group,Ayushman Raja,Lucknow,Uttar Pradesh,26.88748661304625,80.92781965822965,91,1441,368,66.32,3781,103,47.92,536,437,41.23,2299,293,38.49,2425,28,90.7
33,Batta Inc,Orinder Pandya,Lucknow,Uttar Pradesh,26.835944510742262,80.97785994394717,77,3066,472,24.36,828,229,97.3,4336,108,75.04,4907,475,47.51,2562,152,75.95
34,Dutta Ltd,Rachit Maharaj,Pune,Maharashtra,18.54177824548553,73.89666674452923,65,1475,305,45.12,4728,425,84.13,2287,427,83.4,3280,44,69.12,3895,437,47.33
35,Bhatt-Rajan,Sanaya Dixit,Kolkata,West Bengal,22.576578106191466,88.35777446753883,64,1454,11,59.94,620,100,70.43,3227,189,44.54,1627,441,88.87,940,378,54.65
36,Sidhu-Wadhwa,Yatan Merchant,Mumbai,Maharashtra,19.049221269514682,72.91765745732746,96,1762,344,37.33,1464,28,43.43,4380,489,22.88,838,336,80.26,3243,72,31.47
37,Apte-Contractor,Nisha Srinivas,Pune,Maharashtra,18.523585747968816,73.81336191123908,100,1443,464,89.81,4724,126,49.88,2394,354,94.62,4954,384,64.27,506,253,33.45
38,"Yadav, Loke and Oak",Gagan Mammen,Ahmedabad,Gujarat,23.0349237995914,72.53308980407084,93,2702,187,26.97,4175,337,73.6,636,195,47.61,1672,31,48.98,2086,450,33.14
39,Memon Group,Laksh Saini,Kolkata,West Bengal,22.55588157859125,88.38695491368092,52,3827,153,58.99,2576,9,25.76,3576,32,28.52,3308,391,49.2,1325,398,30.45
40,Setty Inc,Zaid Bahl,Lucknow,Uttar Pradesh,26.810627207266336,80.97560251892703,86,4774,493,75.31,832,105,40.53,4383,204,59.35,3529,117,90.35,4324,3,34.37
41,"Lall, Tella and Gokhale",Jagrati Srinivasan,Mumbai,Maharashtra,19.079346109197633,72.9170892583051,100,2759,367,40.94,3868,166,77.11,1161,311,81.48,2589,295,23.14,1768,236,36.22
42,"Cherian, Misra and Tripathi",Hemangini Thakkar,Hyderabad,Telangana,17.434769261592386,78.51194031200389,56,2328,333,69.94,1816,465,58.4,2310,419,37.73,4797,183,99.04,3936,37,28.95
43,"Issac, Dua and Prakash",Lipika Madan,Chennai,Tamil Nadu,13.110557193905075,80.23501279855485,70,1757,424,86.35,1696,256,52.19,914,181,41.56,3517,190,73.15,3938,19,71.22
44,Zacharia PLC,Atharv Nagar,Hyderabad,Telangana,17.391988968487134,78.51294586857406,58,964,419,35.23,3670,294,32.12,842,490,39.42,948,234,74.49,1810,112,99.23
45,Naik Group,Ayushman Mand,Lucknow,Uttar Pradesh,26.83090817487159,80.9783257304672,88,3794,376,93.38,1929,276,55.35,3229,146,99.33,1293,237,23.04,4533,22,90.33
46,Choudhury LLC,Urmi Wagle,Hyderabad,Telangana,17.38070002192817,78.49709578720724,67,1730,278,64.28,855,64,81.66,3950,426,35.79,936,215,68.44,2127,420,23.65
47,Khatri-Bhardwaj,Viraj Dutta,Ahmedabad,Gujarat,22.98749174273488,72.54432513952327,53,3154,170,43.94,4734,270,41.12,4165,267,66.04,2120,73,58.78,1536,445,53.84
48,Brar Inc,Yug Khosla,Delhi,Delhi,28.565120307231805,77.21884427012053,74,1384,133,54.47,2026,387,20.43,4237,10,94.02,4001,110,28.46,977,366,88.74
49,"Sunder, Biswas and Walia",Daksh Kanda,Hyderabad,Telangana,17.38927244433476,78.4618799058907,63,4305,494,44.98,4397,187,73.48,4397,69,31.75,3419,102,42.23,3178,135,30.77
50,Dave Ltd,Isha Ghose,Chennai,Tamil Nadu,13.115379882780909,80.31660747945641,99,4356,452,78.01,528,316,97.81,4741,255,97.67,4808,358,91.23,1214,420,87.81
51,Gandhi-Lanka,Warjas Nadkarni,Ahmedabad,Gujarat,23.03083917947661,72.56148514167636,58,3635,426,83.7,1513,403,68.55,4918,395,95.8,1448,73,64.0,2176,247,67.42
52,"Sampath, Kakar and Zacharia",Ayaan Pandey,Lucknow,Uttar Pradesh,26.89142833396118,80.91153514031161,75,1424,24,86.63,3202,137,29.59,2669,218,90.77,4444,419,53.07,2662,300,94.5
53,"Iyer, Muni and Rastogi",Raghav Tailor,Ahmedabad,Gujarat,23.023088867888447,72.58254542354346,51,2046,17,98.86,1327,342,45.66,2378,296,37.16,1627,472,25.81,1008,96,90.08
54,"Prakash, Sarma and Varughese",Parth Swaminathan,Ahmedabad,Gujarat,23.059712390894415,72.61461182824836,69,1594,189,83.3,4946,104,89.41,4470,408,70.72,691,251,77.13,881,32,74.16
55,Dara-Kota,Gautam Bhalla,Hyderabad,Telangana,17.426875052226077,78.51570846371241,77,2911,140,68.11,2524,33,38.61,3117,361,80.87,4512,113,76.23,1680,134,72.63
56,Bhatt LLC,Theodore Bahri,Chennai,Tamil Nadu,13.10342386343134,80.23595390429143,96,3117,42,47.14,798,379,68.62,2015,258,98.88,4260,378,69.12,2345,254,37.05
57,Karpe PLC,Aadi Narula,Lucknow,Uttar Pradesh,26.80359215393672,80.90393210654888,56,1262,333,63.57,2365,109,52.21,1074,2,34.43,4230,312,60.82,4870,277,29.34
58,Amble Inc,Kalpit Oak,Ahmedabad,Gujarat,23.056543963198042,72.61246861982556,93,2823,283,23.29,4516,431,36.63,4942,83,81.28,1903,329,54.7,2218,132,53.23
59,"Bhargava, Karnik and Bir",Ekiya Bhargava,Mumbai,Maharashtra,19.037323804584076,72.92618411989623,57,4645,145,79.59,2611,32,85.07,3367,155,47.1,2490,338,67.46,1600,237,34.93
60,Narayanan Inc,Manbir Dhar,Hyderabad,Telangana,17.34746626812033,78.52878418826174,96,3275,314,55.68,1254,353,79.43,4044,150,34.05,1604,237,38.67,2360,14,28.19
61,"Khanna, Mallick and Sunder",Janya Bora,Kolkata,West Bengal,22.57448380571261,88.3730275435745,84,3655,443,21.6,1269,230,72.93,4977,175,53.71,1048,172,95.3,2591,276,44.19
62,Zacharia and Sons,Meghana Chaudhuri,Chennai,Tamil Nadu,13.070630569838556,80.29512496518433,63,4470,318,25.0,4235,316,38.91,571,194,83.51,3948,78,67.1,1217,125,88.84
63,"Solanki, Kibe and Solanki",Chasmum Naidu,Lucknow,Uttar Pradesh,26.8769853448598,80.89666320230046,66,2540,440,51.0,1738,265,27.83,3068,425,57.19,2361,463,44.9,817,344,21.37
64,Gupta-Chandra,Nakul Sarkar,Jaipur,Rajasthan,26.87382673000557,75.77875045842036,85,1083,91,66.67,2713,181,66.09,3937,471,63.0,4749,385,55.97,2276,16,43.41
65,Sankar LLC,Edhitha Ghosh,Lucknow,Uttar Pradesh,26.888685561641275,80.9308345994366,99,4831,178,57.14,2406,339,64.29,3480,106,99.61,1070,92,84.45,2784,311,53.92
66,Roy-Sibal,Udant Gill,Delhi,Delhi,28.61198369780891,77.25084547249394,89,2603,55,69.54,2064,64,35.07,1617,423,51.93,2284,451,32.93,1744,49,60.85
67,"Bhagat, Chaudhari and Bhat",Damyanti Menon,Bangalore,Karnataka,12.946422644275716,77.60236319540915,53,2442,154,58.42,1718,332,24.5,2886,133,69.23,2787,49,43.43,1833,134,34.53
68,Nori-Chopra,Peter Agarwal,Hyderabad,Telangana,17.376892544950458,78.5281845901068,51,4955,159,72.94,1857,0,26.46,4008,275,49.22,2921,284,74.36,4169,117,97.14
69,Handa and Sons,Bachittar Gopal,Mumbai,Maharashtra,19.104049570754608,72.85545871726295,55,609,110,37.53,4339,132,99.42,1859,394,51.42,4472,222,45.24,1700,377,66.31
70,"Sen, Dey and Sami",Timothy Chawla,Lucknow,Uttar Pradesh,26.79800944565883,80.96255373720167,91,691,136,29.03,1960,79,82.69,2015,351,75.65,1304,80,83.4,2294,305,61.77
71,Mallick Group,Lohit Narula,Pune,Maharashtra,18.567954131568275,73.8525988988017,53,1403,231,67.71,4485,270,93.76,539,379,95.03,1298,265,30.44,3201,59,20.71
72,Borra Group,Wazir Palan,Hyderabad,Telangana,17.376462412372703,78.44523496680786,78,1361,479,58.78,1916,240,35.6,1882,154,63.39,3775,154,81.01,1954,124,58.86
73,"Chaudhari, Bedi and Zachariah",Oliver Chakrabarti,Ahmedabad,Gujarat,23.022719501033126,72.580938501732,67,1583,467,22.15,3353,27,96.85,2530,276,81.47,1110,372,25.47,2433,466,87.01
74,Chander and Sons,Sanya Apte,Pune,Maharashtra,18.513078890533674,73.88667820220743,75,1149,219,50.44,1928,222,31.41,3121,235,27.14,2306,232,21.01,1246,115,37.57
75,Ray Group,Shaurya Krish,Mumbai,Maharashtra,19.02965496678481,72.874906694511,93,4634,480,28.49,4878,22,60.73,2400,239,36.89,4738,398,91.86,1340,390,48.1
76,Kala-Rattan,Inaya Kunda,Ahmedabad,Gujarat,23.03124536042341,72.55080446792209,83,4111,67,62.51,4974,495,86.38,2717,369,60.17,3760,315,66.51,2995,423,21.65
77,Gala Group,Aarav Bava,Bangalore,Karnataka,12.966928883474804,77.59703902693276,59,1136,301,51.66,4793,108,47.98,1783,12,21.6,4867,235,48.15,1588,172,98.15
78,Ramakrishnan LLC,Raksha Saini,Mumbai,Maharashtra,19.066076306087535,72.88366403313083,85,1536,248,69.05,3562,106,53.99,1083,341,40.23,3871,158,38.61,1292,186,25.33
79,Mangal-Sampath,Odika Tailor,Hyderabad,Telangana,17.353192813049528,78.52287856210135,63,4631,481,84.45,3571,144,30.25,958,34,61.39,2973,404,69.35,1767,497,91.86
80,"Sur, Dubey and Gupta",Indali Prashad,Pune,Maharashtra,18.545724622074744,73.83393018547203,80,2648,495,43.97,1055,368,29.83,2765,46,21.2,2593,315,60.72,2050,87,45.04
81,Kalla-Bhardwaj,Varenya Kar,Bangalore,Karnataka,12.985999954323901,77.58547341710981,97,4365,322,96.97,855,353,69.57,3166,213,41.16,2642,250,99.33,3190,202,67.0
82,"Bhat, Murthy and Bhandari",Siya Borah,Pune,Maharashtra,18.568293143561593,73.89067888594566,64,3657,409,62.85,2063,396,74.04,1315,411,61.12,4501,313,98.66,792,360,74.35
83,Sood PLC,Chaitaly Bahri,Pune,Maharashtra,18.536292394191015,73.80940959925036,57,4087,391,69.46,4000,397,82.19,3011,404,65.85,3580,424,70.8,4522,310,31.27
84,"Dugar, Bhandari and Trivedi",Advika Cheema,Pune,Maharashtra,18.495788856404328,73.82631130996936,63,3794,5,74.45,1540,138,64.53,746,493,94.06,1932,429,55.43,1904,319,55.5
85,Grewal Inc,Hema Garde,Ahmedabad,Gujarat,22.98291085819846,72.60139160853731,72,4761,463,73.34,3186,283,71.66,916,145,71.63,3017,300,59.29,2148,448,46.04
86,"Bir, Keer and Raval",Naveen Borde,Bangalore,Karnataka,13.010346048251352,77.60027215847833,89,2930,279,60.88,4974,297,21.08,4963,158,53.18,3357,379,74.6,3316,181,24.53
87,Koshy PLC,Hamsini Subramanian,Ahmedabad,Gujarat,22.982444139275934,72.54571721909994,70,2379,431,54.3,3053,479,32.97,4217,443,94.43,1005,281,28.13,4410,351,86.66
88,"Baral, Bumb and Saini",Raagini Gala,Ahmedabad,Gujarat,23.05318501489626,72.61766493185549,65,4466,486,24.3,2279,98,98.79,607,124,82.79,1596,101,46.27,3418,167,23.61
89,"Virk, Mutti and Lal",Naksh Bera,Hyderabad,Telangana,17.401808513657066,78.45719842954158,94,4213,93,21.77,575,316,26.08,3131,109,36.0,4679,50,26.02,1897,180,72.26
90,Murthy and Sons,Garima Jha,Pune,Maharashtra,18.56003358185211,73.80800019235107,67,4626,428,48.64,4826,122,74.3,1338,36,30.47,4654,419,25.87,2193,299,45.13
91,Randhawa-Deep,Nimrat Zachariah,Pune,Maharashtra,18.5439904613196,73.8915128095467,96,4606,268,46.69,3819,319,34.09,1921,276,74.06,1544,51,35.67,1537,446,35.37
92,"Mital, Shankar and Mutti",Baghyawati Mishra,Bangalore,Karnataka,12.97990415609697,77.58674245505925,73,2511,196,51.02,2849,286,77.34,4412,13,64.79,2704,208,58.82,4352,129,73.37
93,Andra Group,Gopal Bawa,Delhi,Delhi,28.65496240035403,77.22147612710432,75,3873,24,31.07,3273,80,76.48,755,472,83.17,4402,306,82.78,2062,462,65.96
94,"Chaudhry, Borah and Yogi",Vritti Dube,Lucknow,Uttar Pradesh,26.879210733142266,80.93250592121952,74,2643,147,79.05,2762,494,38.74,3327,346,79.1,1852,130,58.84,1612,148,45.22
95,Toor LLC,Jalsa Aggarwal,Pune,Maharashtra,18.497206364082285,73.86911489078491,94,3000,117,88.56,3729,456,41.57,1337,231,70.02,2096,269,46.84,1791,471,61.04
96,Palla Inc,Gagan Menon,Kolkata,West Bengal,22.599983452320135,88.35017578946659,90,1789,337,95.1,2616,9,72.38,3462,315,98.91,1075,432,26.59,1661,305,39.7
97,Pingle LLC,Ryan Chatterjee,Chennai,Tamil Nadu,13.062146575954193,80.31554533069622,78,1947,366,59.39,892,7,51.21,2782,123,62.69,1179,204,64.02,1529,208,89.1
98,Sarma PLC,Samuel Garde,Kolkata,West Bengal,22.600575877478803,88.32532379259204,64,3699,337,76.07,1608,404,35.56,1052,278,29.05,4798,488,41.7,4837,110,45.11
99,"Mittal, Wadhwa and Anand",Finn Solanki,Ahmedabad,Gujarat,23.071036731224176,72.56850654526937,94,2443,65,88.44,4862,204,78.53,680,478,86.26,4212,218,69.19,4757,435,39.61
100,"Mistry, Chawla and Desai",Darika Rao,Mumbai,Maharashtra,19.074477836715037,72.8789457655882,50,3683,457,53.46,1110,314,32.33,4752,110,40.15,4328,256,98.18,3239,499,80.15
101,D’Alia-Chhabra,Vrinda Lanka,Jaipur,Rajasthan,26.916563421466087,75.80064782198262,74,3716,300,44.75,3275,433,88.45,1977,123,82.18,1629,184,28.91,1478,136,21.41
102,"Dugal, Magar and Manda",Lila Goyal,Pune,Maharashtra,18.492202310749406,73.87120541677693,56,3636,369,94.94,4498,196,61.17,1070,412,96.57,4404,144,36.97,1017,354,41.44
103,"Kade, Oza and Jani",Lakshmi Pingle,Hyderabad,Telangana,17.348227621112535,78.52675723012364,58,3818,174,61.25,1172,197,28.46,2227,430,75.74,3693,495,57.85,1282,403,50.03
104,"Lalla, Tiwari and Suresh",Sanaya Basu,Delhi,Delhi,28.591130732651937,77.16083906765475,73,3282,318,59.78,4177,29,75.53,1091,29,67.68,817,177,97.49,3331,210,90.58
105,Behl-Chanda,Ria Shroff,Delhi,Delhi,28.61686616786551,77.24050544284025,50,1490,75,34.27,530,478,61.53,2760,114,56.83,4196,481,81.74,4680,145,96.04
106,"Sampath, Malhotra and Basu",Upkaar Luthra,Jaipur,Rajasthan,26.889805522068723,75.79271780025158,93,2653,494,28.65,1900,400,43.84,3447,89,49.15,3496,13,91.86,637,83,77.32
107,Nath and Sons,Matthew Chatterjee,Jaipur,Rajasthan,26.91214648939799,75.80932025816323,57,725,460,87.37,4571,458,53.8,847,211,48.24,4094,245,46.7,1253,29,59.4
108,"Lala, Edwin and Sathe",Hemangini Sachdev,Chennai,Tamil Nadu,13.033799582865848,80.23438856300689,73,1276,113,69.13,1116,19,43.87,665,37,70.91,3709,186,99.36,3453,487,71.25
109,"Sane, Andra and Choudhury",Darsh Ram,Jaipur,Rajasthan,26.88904983933709,75.8105184578459,60,3337,110,46.07,3286,47,41.04,4943,82,80.1,3042,336,28.23,2955,64,53.12
110,Dixit PLC,Vaishnavi Keer,Delhi,Delhi,28.623951686043366,77.22550366745463,100,1187,248,35.34,1370,456,33.09,3396,26,74.28,1178,258,24.24,3334,23,43.91
111,Pingle PLC,Chandani Brar,Pune,Maharashtra,18.52772943781794,73.89051069631783,66,1029,438,64.44,4696,129,49.02,4993,216,35.87,2389,353,88.45,1079,471,96.06
112,"Divan, Sani and Datta",Bakhshi Thakkar,Chennai,Tamil Nadu,13.07101385282495,80.2725917705283,57,3942,202,66.71,4104,292,40.08,1082,359,59.52,2143,39,94.18,3755,430,29.23
113,Morar LLC,Jai Sen,Delhi,Delhi,28.58052833687561,77.23280336164264,84,2653,146,36.56,1912,384,74.67,4006,485,83.33,1334,88,27.25,3766,210,47.71
114,Parmar and Sons,Oliver Kakar,Bangalore,Karnataka,12.930633696057761,77.62169859255354,84,1794,34,88.11,3239,131,74.71,4903,371,58.06,2741,124,29.07,895,221,91.93
115,"Krish, Chauhan and Pandya",Jonathan Basak,Chennai,Tamil Nadu,13.116407899070303,80.26441933963572,82,2026,486,26.74,1440,355,60.15,3538,214,62.93,2855,449,22.65,2437,89,77.85
116,"Ray, Dubey and Khalsa",Farhan Saran,Hyderabad,Telangana,17.406904590518426,78.46641217156231,54,3396,308,48.49,840,53,82.24,3345,220,81.69,2168,417,28.36,3089,105,22.33
117,Goel Group,Manbir Kuruvilla,Bangalore,Karnataka,13.016530679705777,77.5842649373052,91,3603,25,74.43,3408,377,87.31,3266,14,72.9,3053,473,36.75,3534,171,21.85
118,Gola Ltd,Ekalinga Chahal,Ahmedabad,Gujarat,23.066182973932477,72.59465720972102,88,2940,237,41.93,4633,280,66.38,4694,442,52.75,780,350,97.61,669,229,61.32
119,Sabharwal-Kothari,Mekhala Nanda,Mumbai,Maharashtra,19.05299112223922,72.88168427789083,90,4635,13,86.21,1159,386,69.51,1765,258,91.63,3262,8,73.43,2837,412,58.74
120,Dutta-Chokshi,Zinal Shanker,Bangalore,Karnataka,12.981107793070025,77.54974258134843,77,4302,373,79.19,2533,264,42.63,4753,265,33.01,1746,349,82.28,3739,76,55.44
121,Barad-Singhal,Oni Chowdhury,Delhi,Delhi,28.6262332550905,77.20642373087004,56,1344,44,83.12,2060,469,91.59,3467,462,99.64,2272,83,82.09,3915,67,44.19
122,Iyengar Group,Mason Divan,Jaipur,Rajasthan,26.869913778173583,75.81011887562036,58,946,427,29.53,3957,214,21.94,2774,119,29.51,2664,20,62.81,4068,364,98.93
123,Mody-Kari,Hitesh Chaudhuri,Jaipur,Rajasthan,26.9328925549689,75.79712860582681,57,4415,215,31.24,2156,459,47.89,2970,463,21.2,691,476,83.8,3716,400,41.76
124,Bajwa Ltd,Hemangini Roy,Jaipur,Rajasthan,26.887040203323913,75.81921023176743,61,3609,232,42.92,3475,457,77.74,2790,400,91.2,3335,280,67.66,3984,352,59.2
125,Rastogi LLC,Leela Sunder,Chennai,Tamil Nadu,13.032933939062579,80.31746993882071,83,1734,192,61.45,1549,289,26.41,3077,127,39.6,3165,357,45.16,2341,388,52.39
126,Boase-Mallick,Baljiwan Gera,Kolkata,West Bengal,22.58162306668691,88.34999738969401,82,726,50,79.84,953,42,34.65,4160,210,78.38,3063,377,64.89,4260,91,33.62
127,Upadhyay-Ratta,Neha Dhawan,Mumbai,Maharashtra,19.039681863091896,72.92272373538208,97,4643,426,86.92,2204,73,67.14,1568,10,84.88,806,171,62.68,3526,87,36.21
128,"Yadav, Narula and Bala",Balvan Randhawa,Pune,Maharashtra,18.522530066741357,73.81537052118622,72,3459,374,76.35,3284,349,64.8,3236,175,88.72,1031,24,85.88,4465,464,93.46
129,Lal and Sons,Wazir Bawa,Ahmedabad,Gujarat,23.04833924139457,72.58529493853342,73,2330,213,94.29,1318,277,79.11,2450,132,99.33,4717,392,98.54,2101,49,88.66
130,"Lanka, Barad and Chopra",Amruta Pradhan,Mumbai,Maharashtra,19.091878336671073,72.8969276564518,86,4279,150,79.1,512,325,85.01,591,324,43.52,3196,102,52.88,1646,102,35.92
131,"Saraf, Pai and Murthy",Geetika Mitter,Kolkata,West Bengal,22.620657680018,88.4042363812636,84,686,439,44.5,4479,241,30.29,3593,319,76.82,558,189,81.07,4826,367,90.05
132,Vaidya-D’Alia,Avni Swamy,Lucknow,Uttar Pradesh,26.80185958066587,80.96319174645501,93,3377,274,41.21,1420,129,21.47,2719,13,29.23,2073,235,27.98,3184,423,36.73
133,Gupta-Kumar,Vedant Desai,Lucknow,Uttar Pradesh,26.855526375696993,80.99613534995659,89,3035,337,75.7,2918,349,75.17,1887,49,52.54,1640,409,82.15,611,491,70.12
134,Sarin Inc,Saanvi Nagi,Lucknow,Uttar Pradesh,26.85349452305526,80.98774882975881,71,2432,75,35.43,1814,193,44.11,4774,409,87.84,2310,312,49.71,1092,45,26.5
135,"Yohannan, Hegde and Patla",Omaja Chakraborty,Chennai,Tamil Nadu,13.105802367145829,80.23995990277857,76,3424,438,27.42,4177,31,70.08,2785,71,49.41,3698,36,23.15,2939,178,90.43
136,Boase-Narayanan,Riya Kakar,Ahmedabad,Gujarat,23.069605824516536,72.61582664891134,84,1348,219,62.58,2517,105,32.04,3706,68,67.29,3976,271,49.06,1738,266,24.12
137,"Murthy, Dash and Mital",Vedhika Varty,Delhi,Delhi,28.638406454812024,77.16448826146465,50,2532,347,85.73,1728,399,57.52,3424,390,60.3,4994,292,68.85,3294,267,64.4
138,"More, Rege and Narain",Daksh Varma,Bangalore,Karnataka,12.953510047324325,77.62749154741506,84,1752,443,28.11,2934,203,60.35,779,382,71.68,3062,331,29.54,2914,396,82.38
139,Merchant-Datta,Dominic Mukhopadhyay,Mumbai,Maharashtra,19.091016735044324,72.86416972494574,86,2381,186,83.35,3368,0,66.81,2118,15,97.83,3352,151,93.92,2629,319,29.35
140,Salvi Ltd,Krishna Viswanathan,Delhi,Delhi,28.65239983565233,77.2120265132635,96,769,288,84.93,3015,244,61.05,3287,438,24.46,1441,281,26.21,3353,7,52.36
141,Ghosh-Mitra,Oscar Hans,Lucknow,Uttar Pradesh,26.869176677152875,80.9027356340799,63,2130,402,58.58,1938,71,59.66,870,333,65.92,2274,19,94.4,3369,448,23.36
142,Acharya-Modi,Dalbir Krish,Ahmedabad,Gujarat,23.026449129237534,72.60047231648389,52,4905,27,24.58,4664,431,46.62,3683,356,89.04,1921,136,76.57,4098,264,74.62
143,Kade-Sani,Tanmayi Bedi,Jaipur,Rajasthan,26.936185576690654,75.78931681098787,50,3703,378,33.97,4043,305,25.69,4334,55,58.51,935,470,46.38,4303,475,44.6
144,"Nagy, Shroff and Sathe",Rushil Mahal,Lucknow,Uttar Pradesh,26.884366537786242,80.9379506084028,54,2074,179,76.59,3675,396,27.16,2203,104,26.28,1339,358,51.26,2026,385,64.75
145,Kala-Vaidya,Ucchal Tiwari,Bangalore,Karnataka,13.008609887390094,77.54672694108504,75,3392,252,76.94,2281,14,54.7,2768,131,64.84,4501,28,79.26,2469,77,94.62
146,Gara-Chad,Jatin Balasubramanian,Pune,Maharashtra,18.48894729095767,73.84509638899198,63,2195,125,91.87,2763,52,48.46,803,483,46.57,4955,30,68.12,1451,396,44.47
147,Varma-Nayak,Kashish Suresh,Bangalore,Karnataka,12.928602970574747,77.54554854336286,88,3758,176,66.61,2469,427,61.29,4274,47,32.4,3181,18,73.73,2002,239,23.89
148,Keer Ltd,Peter Som,Mumbai,Maharashtra,19.066193091360926,72.8756875620304,76,3762,36,29.93,711,7,44.39,1848,247,87.92,2150,147,51.13,4967,257,74.05
149,Kar-Issac,Hemangini Gade,Jaipur,Rajasthan,26.920475720722735,75.7644686971069,58,1945,409,29.71,1007,329,75.03,2922,272,61.73,1745,470,59.03,3836,195,82.95
150,Bakshi Inc,Gautam Mane,Jaipur,Rajasthan,26.939227341386452,75.77907667821674,64,719,98,77.69,831,45,89.12,4128,110,94.66,2761,490,99.19,609,459,96.63
151,Soman PLC,Libni Bawa,Pune,Maharashtra,18.52265191916345,73.87992718071847,64,552,97,34.7,1050,324,43.91,2928,419,84.48,1415,282,37.11,4486,431,32.62
152,Shah Group,Tanish Kant,Mumbai,Maharashtra,19.03704741131314,72.86316221576408,75,2257,126,46.27,1441,113,35.44,3533,325,75.44,3139,349,53.43,2854,329,51.37
153,"Hayer, Rajagopalan and Talwar",Samuel Luthra,Delhi,Delhi,28.5935308120456,77.182360775105,91,2166,482,58.98,1227,146,29.29,1168,335,20.4,4389,340,43.35,725,130,87.53
154,Kohli-Divan,Yochana Bahri,Jaipur,Rajasthan,26.89012656456968,75.82833391020576,62,3285,167,21.98,3362,494,69.3,999,348,54.23,4981,299,81.21,3511,451,84.55
155,"Ahluwalia, Chhabra and Sandal",Urvi Deo,Jaipur,Rajasthan,26.873346759867914,75.77646301405403,100,1219,79,39.91,3743,165,55.51,1914,483,35.8,1826,162,81.12,4626,389,69.98
156,Goda Ltd,Abhiram Kapur,Hyderabad,Telangana,17.356825388786508,78.53169611839502,81,905,293,52.63,1148,378,35.04,1029,37,92.86,3858,112,43.4,1113,342,41.55
157,"Shetty, Bedi and Krish",Dalaja Maharaj,Chennai,Tamil Nadu,13.041641100231226,80.2624580775785,88,2794,332,42.37,3237,138,72.25,4121,356,33.97,2085,454,26.51,598,260,42.72
158,Shan and Sons,Krisha Palla,Ahmedabad,Gujarat,23.06091989781315,72.58147984464422,98,571,125,30.91,3247,116,31.88,3956,239,42.88,3868,149,20.91,1310,241,29.92
159,Wali-Nadig,Zayyan Kamdar,Delhi,Delhi,28.58060339460921,77.2581168626137,81,2553,342,78.24,1509,298,64.34,1254,317,61.35,888,329,54.2,3837,386,93.75
160,Thaman-Sandhu,Chasmum Verma,Ahmedabad,Gujarat,23.066773177413513,72.58636466489924,53,1729,309,85.05,2050,275,62.17,2847,120,41.07,3291,254,52.83,3199,393,33.83
161,"Sehgal, Dutt and Soman",Harsh Amble,Chennai,Tamil Nadu,13.115764251775063,80.23273387620351,79,2067,149,40.6,1303,403,78.74,1226,47,36.79,3832,86,99.07,1519,170,65.83
162,Lad-Kota,Barkha Misra,Delhi,Delhi,28.602309061149125,77.16267319374266,86,4182,15,81.95,4580,276,24.41,3149,9,67.93,1203,398,57.58,3525,146,66.75
163,"Malhotra, Verma and Sundaram",Vasatika Bhatt,Lucknow,Uttar Pradesh,26.874658447356673,80.93121252591668,72,3453,27,50.84,4809,337,91.03,2546,232,27.11,3320,349,40.51,4028,269,49.57
164,"Khare, Maharaj and Sarraf",Aradhana Nair,Chennai,Tamil Nadu,13.095677792299616,80.24233240230366,88,4982,495,60.53,4764,312,76.24,3315,35,24.65,1559,97,91.3,4386,148,48.2
165,Mangal and Sons,Advika Misra,Jaipur,Rajasthan,26.955175228319522,75.83679078226464,94,1198,418,88.48,3901,177,37.29,1374,412,49.78,4674,396,59.29,3479,379,73.49
166,Nayak-Nagarajan,Mason Varughese,Lucknow,Uttar Pradesh,26.84822479243147,80.94531863408687,64,1326,443,80.0,4741,329,34.67,3779,461,77.65,1798,131,67.93,3840,298,51.06
167,"Buch, Devi and Dora",Dakshesh Raval,Mumbai,Maharashtra,19.041389590633987,72.90928331249907,92,848,172,84.41,3661,353,54.53,3484,3,64.38,1801,465,27.65,1296,27,40.41
168,Rajagopal Ltd,Logan Bal,Kolkata,West Bengal,22.584893738293513,88.38868716040922,78,4408,45,30.95,4655,153,85.41,2678,43,53.83,1173,311,50.63,2457,148,51.93
169,Kala Inc,Chakrika Lad,Jaipur,Rajasthan,26.921693993484173,75.79530862078379,85,807,327,25.58,1027,413,87.44,4307,55,65.26,2859,406,95.54,3566,419,84.61
170,Reddy-Narayanan,Nidhi Rama,Delhi,Delhi,28.60964320977737,77.19811697660803,62,3916,235,91.47,3798,200,61.64,1107,41,49.24,4799,96,67.16,3520,279,97.32
171,"Shukla, Sagar and Bhatia",Ranveer Oza,Jaipur,Rajasthan,26.866837666353327,75.8225193533347,81,2834,438,51.03,1523,365,88.86,1134,254,94.89,4612,97,47.56,3180,181,70.88
172,Salvi Group,Vamakshi Parmer,Lucknow,Uttar Pradesh,26.877651607472487,80.9617241980639,56,3309,213,43.03,4234,114,20.44,3227,227,24.39,4082,289,70.05,4941,165,82.57
173,"Bahri, Rai and Sood",Onkar Golla,Chennai,Tamil Nadu,13.106221265452346,80.24883909605776,100,4058,84,77.98,932,158,22.81,1574,113,73.87,1516,355,92.83,3448,16,62.63
174,Pandey LLC,Gunbir Sinha,Kolkata,West Bengal,22.548575378376032,88.38624201136886,71,4978,281,86.91,1676,41,92.95,2414,236,91.3,709,226,41.92,4231,149,69.99
175,Saini-Yohannan,Aarna Goswami,Lucknow,Uttar Pradesh,26.849960251940075,80.99241219725921,77,3977,231,89.0,900,246,82.03,1088,396,84.31,998,144,60.41,1601,338,99.05
176,"Kannan, Sura and Kanda",Gaurav Kapadia,Chennai,Tamil Nadu,13.131847533514506,80.22685170262393,51,3186,84,45.28,2604,67,56.06,3731,173,34.72,928,155,96.7,1537,44,55.07
177,Sarin-Sunder,Udant Mohanty,Bangalore,Karnataka,13.004068096592516,77.57938092079021,91,3485,408,88.18,3550,444,80.29,2804,254,43.67,4139,269,33.79,4731,329,25.3
178,Ramachandran LLC,Garima Prabhu,Delhi,Delhi,28.618277890799742,77.24544928803074,94,775,488,23.27,2733,444,96.45,4338,465,77.36,3651,161,77.57,1291,188,96.56
179,"Ravel, Gandhi and Sibal",Chaitaly Sheth,Mumbai,Maharashtra,19.113862998635515,72.9074426021607,55,3047,64,23.97,2945,325,81.77,2473,416,26.74,2605,111,69.16,4674,138,83.44
180,Walla Inc,Upma Bera,Ahmedabad,Gujarat,22.997028553225533,72.53713406597025,77,3264,133,69.88,3335,333,87.39,2555,276,84.95,2053,330,74.37,2278,60,51.86
181,Bala-Chacko,Urmi Hayer,Jaipur,Rajasthan,26.895800887874525,75.7611690031301,77,836,150,25.05,3013,195,80.85,3980,463,77.51,3706,184,48.1,1481,293,98.59
182,"Sangha, Deshmukh and Shenoy",Lakshmi Wagle,Chennai,Tamil Nadu,13.10071407717603,80.28256113782152,93,2473,114,45.97,2273,89,33.46,2579,334,78.37,3069,204,45.11,1765,321,47.64
183,Bedi LLC,Odika Bhagat,Kolkata,West Bengal,22.5415221539785,88.40206371327703,93,3479,63,73.82,1596,110,86.69,3552,440,28.02,3128,96,74.74,1243,32,49.77
184,Narang-Kakar,Laksh Iyer,Lucknow,Uttar Pradesh,26.843247000876996,80.98410714802282,69,4468,342,46.98,1428,367,35.61,4982,68,77.42,2376,376,37.24,2931,298,68.78
185,Narain-Nazareth,Nimrat Shankar,Lucknow,Uttar Pradesh,26.809586986747345,80.92971188542592,79,1410,426,34.37,2451,358,91.41,1751,325,74.39,1567,54,53.57,874,414,41.95
186,Mall-Sama,Diya Gole,Pune,Maharashtra,18.48647598960483,73.88849670241191,60,2496,362,42.51,2473,144,56.69,4295,229,86.47,2006,449,35.05,2253,111,75.89
187,Bumb-Singhal,Vinaya Natarajan,Pune,Maharashtra,18.489713286458727,73.8151098224468,77,3629,406,56.61,2054,274,74.16,4322,66,23.33,3513,481,20.66,4397,290,32.23
188,Zacharia Inc,Dhriti Bhardwaj,Mumbai,Maharashtra,19.081984431230882,72.83928438567803,74,4704,351,58.03,3278,178,59.78,4802,303,21.85,2167,116,97.6,3036,36,28.64
189,Kapur-Biswas,Siya Mahal,Delhi,Delhi,28.627300570309963,77.21299853797159,88,4257,157,82.64,4921,240,27.52,3889,459,49.84,4566,92,54.54,2491,430,62.79
190,"Baria, Balasubramanian and Kota",Om Dutt,Bangalore,Karnataka,12.934444871809319,77.57293429482655,82,827,76,80.01,1494,325,43.26,2280,483,31.9,1447,292,97.55,3428,494,64.44
191,Bahri PLC,Gaurang Dayal,Pune,Maharashtra,18.52452665786761,73.9029992003859,50,2299,490,56.55,1112,318,98.7,3104,416,64.67,4889,451,31.23,3946,99,28.53
192,Khare and Sons,Pushti Raval,Chennai,Tamil Nadu,13.04295097279907,80.31442284872365,76,814,145,87.65,3093,476,96.86,4188,35,93.39,1671,203,66.99,1091,22,97.13
193,Contractor-Kamdar,Vansha Rajagopal,Hyderabad,Telangana,17.34178370591052,78.46679635669469,62,4045,342,29.14,1095,330,45.64,2224,416,51.32,671,281,36.08,3069,419,65.86
194,Kunda-Pillay,Baljiwan Walla,Mumbai,Maharashtra,19.103098429253215,72.89855720046026,90,1634,462,40.43,1341,463,99.7,3284,158,87.6,1643,188,83.21,3372,423,32.08
195,Contractor and Sons,Kashvi Atwal,Kolkata,West Bengal,22.5571883056953,88.37599155177675,52,3246,224,86.24,4939,413,87.64,4219,148,20.02,2359,475,82.7,1676,486,44.92
196,Chokshi-Bal,Rayaan Badami,Delhi,Delhi,28.651053680615238,77.25634889691774,88,2020,404,50.24,1358,152,68.88,2177,26,33.48,2688,322,29.01,1835,217,84.02
197,Prashad-Ranganathan,Yuvraj Kara,Hyderabad,Telangana,17.399757364340193,78.49613958592285,55,655,312,98.49,944,103,23.21,948,474,22.43,2993,83,92.97,612,88,61.86
198,"Issac, Borra and Kibe",Devika Dayal,Pune,Maharashtra,18.4769626144574,73.88885129474075,57,2224,102,57.3,2288,74,92.12,581,71,46.25,4077,457,35.57,4272,208,35.05
199,Mitra Ltd,Leela Thakur,Bangalore,Karnataka,12.946850874968838,77.54470294798456,76,3843,406,83.35,4817,127,64.59,1906,247,92.66,688,179,69.04,2345,270,28.23
200,"Dara, Barman and Palan",Oliver Bhattacharyya,Delhi,Delhi,28.591262666628168,77.25871245001578,58,1386,346,52.18,3954,198,89.48,1980,100,27.76,4576,273,98.85,2487,420,54.46
201,"Sangha, Prabhakar and Biswas",Chanchal Mannan,Mumbai,Maharashtra,19.036219361969373,72.91312097744616,86,3573,300,54.0,4452,153,86.75,1579,189,68.51,657,180,90.59,2485,236,46.99
202,"Om, Arora and Salvi",Zinal Viswanathan,Pune,Maharashtra,18.55299207657999,73.836537443099,82,3305,427,50.63,1530,55,86.64,4098,95,56.12,3217,446,96.53,3792,387,72.47
203,Cherian-Sant,Radha Desai,Delhi,Delhi,28.641182278001683,77.18200536830315,100,1221,465,77.53,1795,277,75.85,4683,383,95.08,2470,180,47.41,3742,405,94.02
204,Sharaf-Dua,Vrishti Parmer,Bangalore,Karnataka,13.016686356225042,77.5597057891781,91,1412,87,63.8,2563,344,43.31,4180,281,29.8,745,282,28.45,752,208,39.82
205,Goda-Vig,Nitesh Raval,Chennai,Tamil Nadu,13.123652451094783,80.30643600920925,93,3857,370,95.5,1947,18,46.89,3203,321,36.96,3403,286,35.07,623,277,88.42
206,"Madan, Yohannan and Sule",Vedant Kapur,Hyderabad,Telangana,17.374759439796282,78.46412152023487,73,1370,302,40.07,2545,158,44.68,4810,395,22.36,3295,474,60.04,1736,464,93.64
207,Sarin-Loyal,Siddharth Bains,Bangalore,Karnataka,12.952795199049513,77.57667427404381,64,4608,167,28.05,3350,25,21.6,4256,277,54.71,4324,105,83.46,1123,205,92.16
208,Korpal-Chadha,Jatin Peri,Kolkata,West Bengal,22.54559546058911,88.33521047040252,81,997,434,51.46,4324,425,66.61,2258,16,42.23,2877,128,32.01,3656,77,96.17
209,Seshadri-Kohli,Keya Kumer,Mumbai,Maharashtra,19.09116668253759,72.86455263437239,81,2256,169,69.34,2568,168,75.91,3099,262,89.59,1349,261,72.78,3636,400,87.37
210,Raghavan-Nayar,Chanakya Chokshi,Ahmedabad,Gujarat,22.988424573827928,72.54177012492762,73,1617,134,88.86,4261,483,88.31,3050,106,68.4,2310,10,45.89,3889,327,67.48
211,Talwar LLC,Chanakya D’Alia,Chennai,Tamil Nadu,13.048065803816112,80.26606936346053,90,3909,49,47.7,2775,22,31.21,4353,67,69.13,4486,161,47.3,3917,97,52.79
212,Sura and Sons,Sachi Rai,Delhi,Delhi,28.6400023990943,77.22162203216314,98,3328,431,72.3,2308,46,63.53,3246,127,62.55,2626,486,72.95,2155,345,59.34
213,Kuruvilla-Oak,Zayyan Som,Chennai,Tamil Nadu,13.123883603495992,80.31745112636138,98,2147,339,48.02,1811,12,20.64,2792,292,27.35,4764,467,57.36,1766,364,89.81
214,Majumdar-Anne,Samesh Andra,Hyderabad,Telangana,17.41465372909762,78.48485223515125,61,3483,346,69.38,4555,216,27.61,2001,293,55.6,3530,446,84.96,3445,349,44.11
215,"Halder, Chada and Khurana",Osha Chaudhuri,Pune,Maharashtra,18.482918579220254,73.8752565287229,88,642,133,90.78,2951,321,24.34,4904,95,99.96,2807,180,32.47,1660,469,32.74
216,"Ray, Suresh and Khosla",Laksh Sahota,Hyderabad,Telangana,17.39084126725832,78.45925401424438,51,3261,346,38.51,1589,193,78.04,730,394,86.82,3576,212,83.2,2794,335,31.27
217,"Soni, Swaminathan and Sem",Yasti Dalal,Kolkata,West Bengal,22.580797140191443,88.34079934044351,52,3935,136,52.34,2172,143,26.48,4750,0,91.48,2844,468,25.14,940,93,86.16
218,Chander LLC,Ishaan Cherian,Ahmedabad,Gujarat,23.015824674897168,72.61983514074029,98,2931,244,99.46,4175,72,77.32,1698,408,85.86,1119,273,35.52,2592,79,80.92
219,Ravel Ltd,Rushil Iyengar,Mumbai,Maharashtra,19.02716205399081,72.83494468877946,86,2348,108,89.48,4854,155,39.97,614,297,28.24,3402,20,72.49,3205,37,59.81
220,Mohan Ltd,Saksham Parmar,Delhi,Delhi,28.611893883471712,77.21900205481194,98,3196,312,65.17,2503,76,90.22,1913,179,38.2,2907,274,88.39,4259,407,41.99
221,"Pillay, Solanki and Wali",Chakrika Dyal,Jaipur,Rajasthan,26.948412239718923,75.81528509888933,66,2217,286,61.33,4698,418,85.05,4906,407,20.25,4952,259,40.21,1053,227,74.21
222,Sandal-Narayanan,Watika Johal,Ahmedabad,Gujarat,23.04492853081264,72.59631616391013,98,3572,20,42.77,1624,168,96.63,1492,180,44.28,3504,332,46.18,1612,482,23.07
223,Setty-Madan,Ganga Keer,Jaipur,Rajasthan,26.886604501586255,75.83596625932671,51,1567,89,61.38,1721,460,90.7,2847,234,28.69,4414,465,62.97,3277,133,65.46
224,Krishnamurthy-Kashyap,Agastya Chakraborty,Kolkata,West Bengal,22.584415573431812,88.38414649705442,51,3286,295,87.85,3360,286,94.67,1541,439,57.82,2986,115,36.93,2333,195,51.87
225,Hans LLC,Wakeeta Dixit,Lucknow,Uttar Pradesh,26.874280473579294,80.99032375042324,77,4291,111,74.81,2773,84,88.7,511,318,74.17,3902,412,84.89,1814,465,98.23
226,Wason Ltd,Yasti Borde,Mumbai,Maharashtra,19.077771164338472,72.83648664991449,72,1788,300,43.2,3490,415,75.47,4176,336,89.96,4096,24,81.89,3993,389,60.6
227,Handa and Sons,Aahana Kashyap,Mumbai,Maharashtra,19.108451404689685,72.86348013509283,86,4371,76,36.12,3010,181,33.62,3565,7,79.94,2177,439,31.62,3638,281,64.18
228,"Sule, Malhotra and Vohra",Chaman Lalla,Pune,Maharashtra,18.483671575404305,73.86345408482616,81,2306,176,41.22,736,481,41.74,2536,442,95.09,4539,332,57.11,3612,100,76.99
229,"Mandal, Chaudhry and Hari",Chandresh Chaudhry,Lucknow,Uttar Pradesh,26.876758669910906,80.91621502442449,82,2004,342,33.58,1644,455,37.02,3546,428,24.31,1804,253,81.99,598,474,58.76
230,Karan-Patel,Balveer Mannan,Pune,Maharashtra,18.53743854583544,73.90185499743554,50,3808,147,27.65,3753,314,68.29,2850,26,20.97,4593,446,46.99,4425,424,37.97
231,Mittal Inc,Dhriti Sandhu,Bangalore,Karnataka,13.011222130268504,77.6040776637377,68,3451,100,53.53,4282,296,60.29,1040,307,72.91,2463,410,70.65,1979,74,62.98
232,"Walla, Date and Mahal",Girish Bath,Jaipur,Rajasthan,26.867597128365148,75.79142963353011,51,571,245,29.06,1266,111,89.37,3360,145,43.15,3807,443,24.02,4896,293,95.54
233,Bhagat PLC,Lakshit Garde,Delhi,Delhi,28.657420181529947,77.2537350462631,93,2190,116,33.75,3181,449,96.21,576,90,40.28,1861,210,68.7,1722,207,52.79
234,Date-Swaminathan,Ishita Sarma,Hyderabad,Telangana,17.368945019254284,78.51818251137465,75,1844,91,63.79,3165,229,52.39,3567,341,46.47,4794,304,32.21,1504,82,74.37
235,Arora PLC,Girik Pradhan,Pune,Maharashtra,18.536482011829925,73.8620001452592,81,3803,400,33.17,2259,95,60.51,523,271,41.58,2287,320,86.45,976,426,98.24
236,Singh-Srinivas,Qadim Comar,Kolkata,West Bengal,22.604329776996252,88.35913182845184,55,3613,27,25.11,3991,437,97.72,1175,321,60.91,1573,421,48.44,1635,436,86.39
237,Oak-Gour,Mugdha Shan,Bangalore,Karnataka,12.925675410609248,77.56099994809895,81,1382,424,45.39,3315,167,42.1,2894,4,55.21,1665,338,42.52,3356,142,72.72
238,Krishnan Group,Lekha Sridhar,Delhi,Delhi,28.56993520839906,77.18371032340102,53,4734,449,37.63,4013,377,83.39,4767,81,60.99,4099,435,87.27,2205,473,78.88
239,Bhattacharyya Group,Ojas Chowdhury,Jaipur,Rajasthan,26.94957835665922,75.7592213987358,60,3162,24,61.22,995,155,38.02,3898,386,73.82,3217,256,24.01,1017,55,94.92
240,Borah-Bera,Daniel Dutta,Pune,Maharashtra,18.517418259269665,73.8811279065595,66,2004,57,28.19,3680,420,74.52,3259,218,50.97,3653,167,51.73,1720,360,96.78
241,Dixit PLC,Omaja Subramanian,Pune,Maharashtra,18.513765533395638,73.81106616577074,87,2963,497,80.14,4430,104,40.29,988,117,40.1,4626,336,49.6,3006,439,97.52
242,Chada-Kothari,Pratyush Raghavan,Delhi,Delhi,28.565986113929156,77.22432630192374,73,3053,296,92.5,2572,192,90.7,1985,80,33.3,3555,20,42.78,4825,286,70.05
243,Saha PLC,Ayush De,Chennai,Tamil Nadu,13.132333391605675,80.31817931621468,54,1232,133,79.47,837,488,64.92,4159,463,47.96,1159,85,92.94,1691,210,50.78
244,"Kara, Virk and Rai",Vinaya Chowdhury,Bangalore,Karnataka,12.929752648955244,77.58492613611239,83,2248,330,62.63,4449,329,34.87,3735,69,79.34,3082,14,80.07,4380,440,30.65
245,Savant-Mishra,Ridhi Batra,Kolkata,West Bengal,22.52566525022058,88.33966828885113,55,4424,248,88.85,3608,438,37.95,2919,114,80.54,1629,49,25.11,3743,178,50.84
246,"Sanghvi, Mody and Bhasin",Advika Murthy,Mumbai,Maharashtra,19.11282725054084,72.90041690697663,71,923,37,75.59,2317,131,59.51,3995,262,73.35,2774,486,77.17,2477,407,95.44
247,"Chaudhary, Johal and Kakar",Udarsh Nigam,Ahmedabad,Gujarat,23.015049333444807,72.5559934992547,60,3978,389,20.84,636,354,96.93,1256,305,38.72,4966,303,62.18,2742,57,91.18
248,Bumb-Dugar,Rachita Kothari,Hyderabad,Telangana,17.385484488189302,78.49103005233633,97,2091,428,51.53,3055,381,81.57,3024,141,67.05,1968,486,92.07,3590,72,61.89
249,Ghose PLC,Hiral Rajan,Bangalore,Karnataka,12.97946754085724,77.58846154191896,65,4985,74,88.08,4915,137,59.06,4750,421,65.66,2602,415,45.04,2387,214,62.96
250,Dugar Inc,Chatura Apte,Chennai,Tamil Nadu,13.072251516984903,80.28131887135612,82,4937,141,47.67,1415,430,47.02,756,487,58.74,3766,304,65.93,1473,387,44.71
251,Seshadri-Singhal,Yashasvi Singh,Delhi,Delhi,28.643195609460562,77.22450093388322,58,992,321,22.82,4038,330,63.94,2279,206,64.0,2971,195,60.06,565,265,56.36
252,Bali-Kata,Noah Borde,Bangalore,Karnataka,12.980835032859337,77.63583633456167,55,691,167,79.69,2600,269,79.87,2615,110,59.34,1651,363,59.16,3406,446,77.16
253,Mandal-Setty,Ekani Khosla,Bangalore,Karnataka,12.983896658356349,77.60775602200926,65,998,258,84.16,3407,37,82.71,3848,302,65.24,592,300,56.49,1070,72,52.19
254,Kaur LLC,Arunima Bedi,Mumbai,Maharashtra,19.039156768512726,72.89928249646822,78,1756,372,32.85,3414,395,45.97,1972,111,77.24,3066,287,36.45,4392,466,35.04
255,"Hora, Sandal and Contractor",Kritika Rau,Pune,Maharashtra,18.53365405332263,73.8439848637189,52,2468,354,62.99,2482,44,77.69,758,416,28.77,1781,387,80.46,807,270,63.27
256,"Kar, Dixit and Lata",Farhan Sharaf,Delhi,Delhi,28.58199769527095,77.24443850933696,69,4822,224,35.36,4370,400,72.62,4575,42,79.97,3400,244,56.11,3908,498,38.03
257,Bora Inc,Sara Chakrabarti,Jaipur,Rajasthan,26.88712310744032,75.82437499012725,85,2686,151,77.54,4067,463,96.73,806,346,30.87,3299,448,96.68,4242,353,97.94
258,Mohanty PLC,Sanya Mutti,Ahmedabad,Gujarat,23.03044148993435,72.58766212790083,68,1316,18,41.72,1498,162,94.49,1618,284,25.33,3677,352,40.86,1282,233,51.23
259,"Mani, Sarna and Dash",Widisha Badami,Pune,Maharashtra,18.486752387258502,73.84580815366517,75,3720,145,45.3,2647,449,83.15,3517,127,98.09,3104,454,74.62,4716,318,92.77
260,Modi-Rau,Netra Sachar,Jaipur,Rajasthan,26.902304594613714,75.82309862539228,52,1973,447,87.6,895,330,77.87,4841,184,96.56,4381,200,95.26,1265,18,38.04
261,Tella-Zacharia,Aadi Chand,Chennai,Tamil Nadu,13.06521900642247,80.29804731256867,68,1586,240,58.11,4098,252,41.92,3280,228,24.83,2913,192,73.08,3975,112,35.14
262,Sarma-Buch,Yashoda Jhaveri,Ahmedabad,Gujarat,23.012165977634357,72.54510278571082,69,4699,371,73.58,1438,168,87.68,2158,388,55.46,2044,335,89.7,1272,62,69.35
263,"Baral, Sankaran and Naidu",Harita Patla,Lucknow,Uttar Pradesh,26.804049674733,80.91317579050876,81,2374,380,52.19,2136,450,54.2,686,220,34.9,4030,145,86.2,4357,371,82.35
264,"Krishna, Bal and Chand",Udant Sha,Lucknow,Uttar Pradesh,26.84157775738314,80.96313904014595,56,1370,343,43.84,3224,284,41.78,2297,351,58.83,3146,309,48.81,3685,183,65.34
265,Bail Ltd,Urvashi Patla,Jaipur,Rajasthan,26.905488752366182,75.76217142725876,90,2542,236,70.04,3010,273,50.73,1424,443,86.41,2558,126,68.01,1039,276,38.38
266,Baria-Gill,Ishaan Chatterjee,Mumbai,Maharashtra,19.05125277820754,72.86362507479163,82,772,34,32.39,2149,19,86.87,1284,116,96.05,1645,174,32.5,2549,161,23.03
267,Venkataraman-Sathe,Aarnav Om,Jaipur,Rajasthan,26.92295381576449,75.772973205304,89,1529,189,49.84,4190,238,31.89,3944,69,70.74,1410,133,62.84,3783,242,69.46
268,Golla-Sarin,Bishakha Vig,Chennai,Tamil Nadu,13.110879032984505,80.29123855941123,88,3718,0,36.72,3935,269,56.49,3696,385,48.31,3806,65,38.43,2163,144,30.48
269,"Swamy, Chand and Singhal",Hitesh Bath,Ahmedabad,Gujarat,23.031035436439677,72.60822712805133,67,4569,483,75.66,3701,417,59.39,1860,69,68.27,2066,392,79.5,1547,145,47.45
270,Rege-Nath,Waida Dey,Hyderabad,Telangana,17.361974961151702,78.44240868560892,89,1551,152,95.54,4679,432,22.93,840,109,44.96,2895,451,62.24,4336,80,74.06
271,Cheema-Dyal,Hredhaan Kumar,Chennai,Tamil Nadu,13.126360569229497,80.22463435406685,50,4533,428,99.64,4866,309,35.66,1062,426,92.79,3505,364,52.9,3939,321,27.84
272,Sabharwal-Tandon,Raghav Dara,Pune,Maharashtra,18.492870117697265,73.82470104374728,60,2073,432,56.02,2791,30,86.14,3499,131,89.63,4748,278,41.5,1005,434,30.18
273,Rattan-Bansal,Tanveer Shankar,Chennai,Tamil Nadu,13.043030895712402,80.27916707004427,77,3690,125,40.2,4983,313,86.46,1693,55,64.66,591,245,99.9,3747,320,24.93
274,Chakrabarti-Murty,Hamsini Chokshi,Lucknow,Uttar Pradesh,26.836437898846437,80.94418970815921,74,4888,490,55.43,713,103,43.39,3610,476,45.98,4492,362,25.74,4000,42,99.69
275,Naik-D’Alia,Chakradhar Dasgupta,Delhi,Delhi,28.59621306570703,77.25630977480704,99,4297,481,87.78,3737,169,89.99,568,442,43.47,830,236,23.48,2410,312,50.97
276,Varkey-Agarwal,Tanvi Thaman,Pune,Maharashtra,18.515873985563385,73.85825960285793,72,3789,344,36.48,4362,185,81.74,2928,88,22.67,1454,170,37.38,1232,393,92.46
277,"Shere, Sachdev and Bhagat",Wishi Agrawal,Delhi,Delhi,28.598165348812092,77.21222449888263,80,4247,399,96.17,558,127,53.43,4098,136,85.27,4280,50,97.69,4013,292,43.49
278,Vasa LLC,Rachita Subramanian,Pune,Maharashtra,18.473397358987267,73.83749299415912,79,2605,225,47.35,3430,209,79.87,2872,130,56.03,3101,327,98.34,2071,175,80.26
279,"Tara, Sathe and Behl",Oscar Dave,Delhi,Delhi,28.584085345212294,77.2263432433325,91,807,220,98.86,3471,413,96.91,1343,217,46.01,3477,358,72.39,3442,375,37.53
280,Loke PLC,Lila Nagy,Delhi,Delhi,28.582734908376562,77.23208294748709,84,3859,402,87.09,2027,280,56.72,1073,175,57.69,4789,152,90.41,4956,68,59.87
281,Mani Group,Omya Kothari,Kolkata,West Bengal,22.609414225437753,88.33161497894474,56,3676,406,84.69,622,446,39.07,4714,170,85.5,1029,79,37.12,2821,55,85.97
282,"Sundaram, Dara and Balakrishnan",Mitali Oza,Delhi,Delhi,28.630063235037117,77.25686312874005,65,1751,210,45.43,4219,252,95.35,3096,474,29.97,3392,418,97.76,3835,118,85.31
283,"Khatri, Dutt and Mukhopadhyay",Sneha Deol,Lucknow,Uttar Pradesh,26.798451599086206,80.92061472904224,75,3247,24,20.7,1936,18,68.3,1978,99,88.61,1766,144,31.42,4874,203,83.54
284,"Atwal, Reddy and Chander",Nitara Vala,Lucknow,Uttar Pradesh,26.88359049844787,80.95326097466389,97,2017,15,50.57,1662,199,28.42,2573,479,91.8,1973,273,28.09,3253,419,85.9
285,Comar Group,Dipta Kalla,Ahmedabad,Gujarat,23.05205103716964,72.61326777969934,98,1878,181,44.14,3800,219,65.81,2013,128,95.74,2097,154,28.98,1872,414,36.92
286,Dube Group,Shaurya Mannan,Mumbai,Maharashtra,19.047567515239773,72.89358854702327,51,2461,498,22.99,3845,135,60.05,1468,56,51.8,3025,398,65.85,1944,54,58.58
287,"Manne, Upadhyay and Mahajan",Kevin Gokhale,Chennai,Tamil Nadu,13.099397151699092,80.27841852367118,50,4805,328,60.43,2986,222,88.45,2696,180,37.37,4261,336,82.48,3876,37,58.79
288,Subramanian-Sodhi,Jack Pandey,Delhi,Delhi,28.663841372577068,77.16382120388606,97,3363,128,52.24,1061,2,62.46,2011,245,49.89,3242,362,49.33,789,242,91.24
289,Shan PLC,Omisha Walla,Jaipur,Rajasthan,26.949043866752767,75.83663369373586,61,3156,41,70.76,4481,450,40.42,1154,143,46.63,4925,324,98.23,2565,200,43.75
290,Rajagopal and Sons,Pahal Arya,Jaipur,Rajasthan,26.87144816952871,75.76616855955307,54,2994,402,69.69,2237,235,74.05,3492,50,34.09,969,335,54.75,563,235,94.52
291,"Trivedi, Deshpande and Boase",Aryan Raj,Hyderabad,Telangana,17.400051164779175,78.51321908645558,86,4505,480,29.66,1404,341,63.41,792,367,68.58,4330,142,32.04,4445,473,56.06
292,Sachdeva-Oak,Chatresh Bhalla,Hyderabad,Telangana,17.40175933855636,78.51748459419413,81,4063,417,98.16,4054,464,38.64,3101,458,58.13,1033,297,57.28,829,14,73.58
293,"Loke, Agate and Mandal",Amara Dyal,Delhi,Delhi,28.651689115904134,77.19071957167654,58,1422,335,34.95,4990,227,65.89,4912,217,89.26,4555,493,74.32,2463,143,41.51
294,"Misra, Suri and Dixit",Zashil Dhingra,Mumbai,Maharashtra,19.03802090553706,72.88214890979609,90,4732,235,55.62,2226,400,85.72,4993,103,22.57,4179,33,86.58,3588,76,52.82
295,Yohannan-Sule,Chakrika Jani,Jaipur,Rajasthan,26.89523812278851,75.80032087483292,84,4962,359,59.05,3423,141,22.29,2088,382,71.51,4587,303,56.7,2990,472,76.78
296,Natarajan-Purohit,Jagrati Sethi,Lucknow,Uttar Pradesh,26.836317269160926,80.96574672066899,68,3459,438,85.05,4031,498,70.47,1095,54,81.04,1261,466,67.49,640,477,61.02
297,Nagy-Gulati,Udarsh Ramachandran,Jaipur,Rajasthan,26.922048547498544,75.79186868884955,97,683,401,27.94,4406,8,47.97,3093,256,80.76,1390,391,41.39,2973,308,94.46
298,"Khare, Rajagopal and Kaur",Yasti Mani,Bangalore,Karnataka,12.944326962726315,77.55191959237685,65,3858,33,54.29,1434,189,43.41,2623,345,90.89,2855,238,71.67,4403,439,78.97
299,Bassi-Nadkarni,Lakshmi Ram,Bangalore,Karnataka,12.938444438514273,77.60885759689472,52,1898,344,70.28,574,349,51.41,2443,155,78.32,2455,137,98.88,949,262,65.15
300,"Solanki, Raj and Raju",Dhriti Bhagat,Delhi,Delhi,28.61024940438006,77.19697857801792,69,3296,380,37.21,794,404,47.36,1415,52,94.22,3471,253,23.92,2325,184,90.93
301,"Doshi, Tandon and Bansal",Zayan Jain,Lucknow,Uttar Pradesh,26.8918478559666,80.98091673613726,73,1036,44,70.2,520,459,86.58,4369,441,46.61,2172,4,90.92,4946,54,73.24
302,Thakkar PLC,Umang Pillai,Chennai,Tamil Nadu,13.11407662883196,80.23159183418468,82,1773,133,93.89,3742,164,41.98,3294,328,60.26,3336,371,64.98,1369,307,71.79
303,Chaudhry-Sarraf,Rishi Menon,Chennai,Tamil Nadu,13.07258227808969,80.27871723692274,73,3467,20,99.8,1538,479,78.65,3578,443,21.13,4144,175,40.17,4064,3,39.71
304,Vora Group,Peter Borde,Hyderabad,Telangana,17.395790509279347,78.51318832615421,60,3549,121,22.6,1609,138,27.52,1475,186,20.56,2797,372,96.39,4159,298,51.59
305,Dhawan Group,Oscar Varkey,Kolkata,West Bengal,22.597287571613585,88.38544909070993,98,1596,69,38.85,4271,275,96.11,1575,363,39.21,4561,409,58.67,4102,39,74.66
306,"Dubey, Borde and Singh",Krishna Baria,Chennai,Tamil Nadu,13.052277798568355,80.22145628749782,57,1805,351,44.82,871,290,69.79,3489,149,28.06,3666,213,46.54,892,229,91.34
307,Nigam-Rao,Arya Lalla,Chennai,Tamil Nadu,13.122503054894999,80.24504822965764,85,1415,360,51.93,1674,52,76.54,3967,263,40.82,1819,363,34.52,1341,376,45.24
308,"Buch, Narasimhan and Walla",Naveen Kumer,Bangalore,Karnataka,12.927626739028957,77.63804360268055,87,3581,47,39.38,1664,174,43.84,1951,249,34.16,683,22,39.56,2948,285,37.24
309,Nadig-Sura,Ganga Shukla,Kolkata,West Bengal,22.542055832318532,88.33053316077431,89,4747,490,36.28,1592,109,52.97,4323,432,22.28,1783,317,86.63,3291,137,67.5
310,"Banik, Biswas and Keer",Balveer Dube,Hyderabad,Telangana,17.36067765677205,78.4651872901962,69,1528,38,96.36,1783,202,37.9,4432,297,92.74,3346,12,69.15,3453,477,25.38
311,"Mani, Karan and Chana",Charan Mitra,Bangalore,Karnataka,12.97969320532628,77.55356263391549,84,2477,286,93.48,2511,435,94.6,2528,410,20.66,2733,392,93.06,1858,102,77.16
312,Chaudhari-Chaudhry,Ishita Bora,Delhi,Delhi,28.603890520680416,77.25667252386626,97,3854,489,23.76,1345,135,59.05,862,422,78.89,4588,240,38.56,1490,6,76.25
313,Ganesan-Mistry,Thomas Gour,Lucknow,Uttar Pradesh,26.808888609333692,80.91431493495347,74,3011,9,47.11,2491,3,70.44,2929,210,32.17,1932,275,29.69,1538,163,48.4
314,Batra LLC,Yashasvi Dutta,Lucknow,Uttar Pradesh,26.8766781095424,80.91465851295371,84,770,29,52.41,1020,154,78.74,4132,24,92.98,3640,91,20.49,527,418,91.41
315,Memon LLC,Netra Chanda,Ahmedabad,Gujarat,23.051840725814785,72.53992284465474,74,1686,243,39.12,4966,171,49.69,2818,293,91.42,2296,107,60.63,887,471,60.17
316,Sankar-Dhingra,Timothy Kala,Ahmedabad,Gujarat,23.068792687523757,72.569754564672,78,4700,273,70.31,4696,423,77.61,3585,340,72.31,2555,440,99.86,1332,422,71.66
317,Wali Group,Garima Patel,Pune,Maharashtra,18.551974864350427,73.84405096830385,67,4264,443,71.23,742,357,74.08,2845,151,73.78,3836,228,75.6,749,419,36.77
318,"Gole, Garde and Gill",Tejas Wali,Lucknow,Uttar Pradesh,26.807930434441122,80.89645840148451,95,2898,87,88.04,3300,46,76.45,4098,23,20.43,1282,151,44.67,2527,364,53.39
319,Raja PLC,Aditya Contractor,Kolkata,West Bengal,22.60451888594268,88.40232064633484,67,4735,243,79.27,3396,93,59.14,4829,251,98.79,2007,107,90.15,2028,275,88.99
320,"Khosla, Tank and Dhar",Sanaya Khosla,Jaipur,Rajasthan,26.94177438503805,75.8019605913423,51,4682,380,63.41,3102,427,50.63,2231,59,90.23,4354,288,82.54,4693,48,37.04
321,Shenoy Ltd,Balveer Nagi,Ahmedabad,Gujarat,23.01360284698067,72.60538613028667,84,2211,328,72.29,2773,47,37.77,526,466,91.61,1176,403,21.23,2338,95,51.25
322,Sharaf-Kumer,Ishaan Raju,Ahmedabad,Gujarat,23.04949447002517,72.57706370579366,65,2730,478,41.92,2041,239,85.97,592,433,72.74,2330,443,85.35,1860,58,45.45
323,"Andra, Shroff and Mani",Barkha Bakshi,Chennai,Tamil Nadu,13.06290605018348,80.29389580675857,90,628,14,67.44,3265,346,68.67,3164,366,47.58,4590,175,44.04,3609,230,32.09
324,"Dugar, Borah and Sathe",Yoshita Trivedi,Hyderabad,Telangana,17.377373825364877,78.50345498992914,85,1769,3,59.14,2614,212,55.55,808,65,91.49,4806,319,31.97,1823,176,43.18
325,Mistry-Samra,Vidhi Bassi,Delhi,Delhi,28.640565613520042,77.1739703967957,82,4172,190,30.67,4991,435,95.52,551,397,43.32,1860,285,38.11,2726,89,38.62
326,"Krishna, Shan and Mittal",Reyansh Nagi,Pune,Maharashtra,18.529060846317545,73.82350142077449,53,2101,167,39.4,3583,339,23.83,818,52,65.02,3186,363,57.49,4180,281,93.89
327,Rajagopalan Group,Gopal Ganesh,Bangalore,Karnataka,13.008525962465106,77.59188919656332,82,4470,8,43.34,2357,323,88.01,2492,415,27.98,690,328,53.99,1391,35,79.29
328,Khalsa Group,Dominic Kade,Chennai,Tamil Nadu,13.042271455552017,80.22306385860463,63,4744,108,93.94,1269,138,99.81,4776,105,93.76,1342,364,43.11,1805,170,45.29
329,"Parmer, Merchant and Merchant",Panini Chawla,Bangalore,Karnataka,12.982309403608879,77.59926974127141,70,1127,136,38.43,1922,204,90.96,4391,95,31.26,834,240,33.78,4692,125,81.07
330,Randhawa LLC,Radhika Bora,Lucknow,Uttar Pradesh,26.82238838476457,80.95940154860205,97,4297,153,43.14,906,380,84.83,4456,475,37.99,1610,144,80.98,761,482,21.77
331,Bawa PLC,Arjun Sharaf,Jaipur,Rajasthan,26.912076685885918,75.83607855202149,69,2544,387,49.55,3472,72,49.94,3192,175,64.65,1078,355,99.21,2840,298,62.12
332,"Taneja, Mangat and Karpe",Baljiwan Chahal,Bangalore,Karnataka,12.98130469168957,77.61218412450874,57,4052,208,73.1,2372,3,38.51,3518,38,81.13,561,13,82.22,2293,354,40.03
333,"Pandey, Kanda and Gupta",Chatura Gokhale,Lucknow,Uttar Pradesh,26.83951996149256,80.96795977656582,56,2841,271,29.46,3194,75,78.79,2524,167,69.55,886,274,43.67,2796,203,29.15
334,"Krishna, Devan and Chatterjee",Ekavir Kari,Mumbai,Maharashtra,19.02758210917656,72.86180900244743,52,3714,142,96.32,2769,328,44.37,4931,41,38.57,1669,70,39.58,2792,288,90.7
335,"Baral, More and Sastry",Nikita Rama,Bangalore,Karnataka,12.981921941021337,77.57832271327554,66,749,98,89.25,1681,76,34.08,2025,366,20.08,2700,314,37.41,2670,355,35.95
336,Patla Ltd,Nidhi Sant,Pune,Maharashtra,18.547662272744937,73.83318954472368,82,3425,376,66.18,1939,303,82.92,1778,103,80.57,2183,194,30.94,824,461,85.79
337,Chana LLC,Anay Ramachandran,Chennai,Tamil Nadu,13.122119087466412,80.23988673247187,97,1474,307,73.92,3553,255,45.0,1013,332,98.82,986,352,64.11,1485,96,53.06
338,Sagar-Gill,Abeer Bhatnagar,Ahmedabad,Gujarat,23.009195607920482,72.55575604747757,61,1825,68,21.33,3833,409,93.16,4837,203,84.79,4232,299,68.43,4352,237,21.14
339,Deo PLC,Elijah Parmar,Pune,Maharashtra,18.477342384274607,73.85860597909083,100,1483,246,47.12,3397,101,87.25,2233,7,56.82,1040,415,76.44,2239,172,78.6
340,Wali-Thaker,Bimala Mitra,Delhi,Delhi,28.630860261613396,77.16599316057095,71,1388,260,83.65,3403,105,87.81,3870,462,92.3,2560,366,74.42,2360,300,67.71
341,Gala-Kurian,Baghyawati Sarma,Chennai,Tamil Nadu,13.05981474365002,80.27998119916535,71,3437,275,26.2,728,332,81.73,4421,281,52.79,4746,10,43.39,3637,87,47.53
342,Merchant-Nigam,Megha Balasubramanian,Bangalore,Karnataka,12.974895778655133,77.57703337531154,95,2617,78,42.59,4459,38,90.47,3000,395,61.99,1738,105,46.42,4398,398,42.52
343,Sidhu Inc,Naksh Walla,Bangalore,Karnataka,12.940632486281908,77.54983388757866,79,3172,145,66.82,2393,475,84.46,3964,42,58.17,1490,257,74.52,1335,350,25.9
344,Kara Ltd,Laban Raman,Delhi,Delhi,28.6001944271846,77.25854804907043,87,1826,110,40.51,1813,313,68.2,2759,434,55.81,4967,473,47.96,4654,16,95.31
345,"Ranganathan, Pau and Chana",Maanas Misra,Pune,Maharashtra,18.51692056122837,73.81271423426008,87,970,257,94.72,1570,274,43.67,3159,109,82.02,2799,380,37.01,3278,139,59.52
346,Atwal-Lalla,Advay Dhaliwal,Lucknow,Uttar Pradesh,26.892462528450537,80.91373029423578,94,2487,92,30.48,1474,87,91.06,755,474,62.14,4407,195,49.95,1896,253,26.84
347,"Dasgupta, Sha and Pillay",Benjamin Ahluwalia,Jaipur,Rajasthan,26.879447793817395,75.77824778530052,100,590,12,83.79,2238,210,87.25,2002,209,45.34,4788,144,41.77,2176,277,89.49
348,"Lala, Raj and Prabhu",Frederick Mody,Jaipur,Rajasthan,26.94458064439011,75.73742366797595,57,1029,259,60.64,3785,368,57.83,2610,236,40.65,1580,464,27.07,4831,150,42.31
349,Kaur Group,Hemangini Kakar,Ahmedabad,Gujarat,23.052044996078973,72.61411778194794,76,4559,425,80.03,1257,76,23.13,906,355,23.02,697,219,86.41,4813,345,36.29
350,Narang PLC,Yauvani Dhar,Pune,Maharashtra,18.51033159158093,73.82194160133305,76,3273,108,44.86,3595,76,71.08,3349,318,66.66,2694,349,88.25,2337,333,42.47
351,Bhatnagar Ltd,Qarin Kant,Chennai,Tamil Nadu,13.106418022500725,80.29755998047885,83,2186,329,61.16,820,441,24.05,3676,48,38.4,2098,423,37.58,4221,139,65.17
352,Mittal-Rege,Rishi Contractor,Mumbai,Maharashtra,19.110203329437642,72.87979579772721,70,691,188,88.55,2821,27,94.1,2360,114,31.85,2100,470,25.18,4172,113,25.92
353,Dey Inc,Chatura Shenoy,Kolkata,West Bengal,22.54830472664321,88.39269019882923,79,2486,94,57.35,1055,244,96.93,4854,154,72.31,4192,173,79.11,3522,67,58.54
354,Modi Group,Bina Bhavsar,Mumbai,Maharashtra,19.08684864126598,72.87838384318205,82,4123,104,48.78,1886,65,35.16,1222,136,74.5,4365,215,36.92,2171,365,91.66
355,Chatterjee and Sons,Guneet Hora,Hyderabad,Telangana,17.4058744697743,78.44031603805247,77,2685,7,62.89,3547,265,74.11,1782,166,80.17,1183,92,51.47,1416,178,35.05
356,"Deshmukh, Rama and Setty",Ganga Parikh,Mumbai,Maharashtra,19.04873573000961,72.86186745018969,96,4940,66,77.39,2927,381,27.38,1113,320,60.29,3583,259,25.13,1417,124,46.5
357,Zachariah-Saini,Wahab Chaudhry,Jaipur,Rajasthan,26.871164274676385,75.8309957823031,82,1508,495,55.49,2504,469,78.36,3831,198,91.52,4489,421,38.1,1633,396,51.69
358,"Dubey, Sachdeva and Chaudhary",Ekaraj Hari,Jaipur,Rajasthan,26.91337242467517,75.8198286108233,54,4283,190,95.11,2430,204,47.78,3616,473,94.91,832,62,83.43,2336,312,66.9
359,Reddy-Mammen,Vedika Seshadri,Pune,Maharashtra,18.564638701910223,73.89403366617239,97,4798,365,43.6,2663,57,74.48,2478,70,84.59,2271,28,84.35,2638,310,93.54
360,Prabhakar and Sons,Damini Dua,Kolkata,West Bengal,22.61453919732144,88.36359634829059,68,4787,255,58.04,4367,200,49.83,1312,499,70.85,4700,274,36.57,4507,337,51.56
361,Saxena-Keer,Diya Sangha,Kolkata,West Bengal,22.579257536217142,88.35300427630582,53,2552,8,80.55,2926,224,31.65,2286,6,44.3,3221,346,46.87,2405,362,25.53
362,Chaudhary-Pillai,Aayush Munshi,Mumbai,Maharashtra,19.03763663978855,72.90944497084912,84,3808,477,75.13,4293,141,52.49,830,199,98.64,1306,284,30.74,4489,411,47.84
363,"Parmer, Bhat and Rao",Timothy Sarin,Bangalore,Karnataka,12.989030380640905,77.59784811925594,98,2216,116,89.09,3013,380,29.01,2712,335,41.93,1564,483,25.93,3985,357,35.21
364,Gupta-Das,Jagvi Desai,Kolkata,West Bengal,22.53672780492755,88.33509824909022,66,810,266,99.74,4303,367,66.15,1716,66,36.21,1388,418,99.37,2620,232,72.14
365,Chand-Kala,Varsha Shere,Jaipur,Rajasthan,26.894652797784644,75.73958938249761,93,1760,98,54.15,2827,83,23.28,4982,492,55.37,3423,371,72.45,3232,427,22.34
366,"Bail, Bedi and Nath",Jagrati Mody,Delhi,Delhi,28.586261443449633,77.25473228878946,77,4432,484,28.89,1117,142,62.19,3837,137,24.55,820,69,63.37,3269,146,43.35
367,Dass PLC,Ikbal Gill,Delhi,Delhi,28.627997207734534,77.24124805636345,79,3768,297,22.43,2665,351,90.91,2875,241,98.28,4457,378,81.24,1821,429,63.61
368,Biswas PLC,Avni Dey,Jaipur,Rajasthan,26.910335444013786,75.7686727691194,78,1084,396,78.15,3808,32,87.03,1740,454,67.07,2882,278,87.21,4216,110,42.19
369,Kalita and Sons,Adya Bose,Mumbai,Maharashtra,19.0866252937751,72.9041809800903,95,3299,163,89.92,1492,400,90.62,819,212,64.56,3731,230,84.54,3854,362,64.08
370,Divan-Agate,Anirudh Tripathi,Hyderabad,Telangana,17.385256607646348,78.47656630277723,55,859,375,37.66,1877,151,93.76,4994,180,72.46,2811,301,21.32,2028,357,29.18
371,Dhillon-De,Nidhi Kala,Jaipur,Rajasthan,26.929030688583506,75.74947619111254,84,3366,140,32.68,4881,157,28.36,2414,253,59.76,4101,254,34.94,1259,237,95.42
372,"Krishna, Ghosh and Choudhary",Abha Zacharia,Chennai,Tamil Nadu,13.035281190694949,80.23421662891549,90,2511,267,24.98,3674,445,30.3,4700,100,22.57,2000,171,72.39,3912,2,43.27
373,"Bal, Deep and Aurora",Manthan Pau,Hyderabad,Telangana,17.34299653943593,78.51437236304717,86,4506,36,85.82,1805,140,64.56,829,350,68.98,2068,431,50.06,1857,210,93.84
374,Khanna-Naik,Udant Mannan,Hyderabad,Telangana,17.378951168863292,78.44726646842618,73,2125,73,44.91,3578,445,91.52,1159,86,77.29,3781,179,98.6,2690,403,46.07
375,Ghosh LLC,Ucchal Thaker,Kolkata,West Bengal,22.52263325061205,88.31566878096133,78,3264,72,52.14,3186,250,97.95,4188,184,53.34,2019,263,73.23,3981,24,82.55
376,Date Ltd,Mekhala Patla,Delhi,Delhi,28.628920109239818,77.17420248531286,98,1390,307,60.22,3483,302,23.7,3618,90,80.58,2418,182,96.52,1448,330,39.69
377,Vora-Comar,William Gandhi,Bangalore,Karnataka,12.97804410906789,77.56377824555919,95,1231,198,87.16,3023,111,48.46,2472,247,38.16,4589,321,36.12,2579,183,73.58
378,"Bhatt, Soni and Sen",Sanaya Dutta,Jaipur,Rajasthan,26.86821637955055,75.83678663171698,80,4461,129,72.07,4082,143,37.03,2293,213,37.7,2365,204,89.12,2266,464,45.9
379,Varghese-Chopra,Madhav Sule,Ahmedabad,Gujarat,23.002235504823684,72.56443371775089,84,3004,245,69.21,1985,449,80.48,3718,358,32.91,1905,423,45.71,527,60,60.73
380,Thakur-Kant,Banjeet Kanda,Jaipur,Rajasthan,26.876624936868723,75.74943849394225,82,1114,311,34.05,2600,208,71.22,3033,248,49.76,3223,248,99.17,2970,122,73.91
381,"Bassi, Verma and Mitra",Vincent Bhatnagar,Bangalore,Karnataka,12.939376638785125,77.61376180555693,70,4306,59,61.06,4215,223,29.59,2957,125,87.76,504,212,32.62,3038,496,67.11
382,Balasubramanian-Bhat,Kala Kaur,Mumbai,Maharashtra,19.07694221281498,72.9273696853853,81,2219,278,77.23,2501,42,58.68,3600,410,86.23,1668,158,61.31,659,54,66.1
383,Ratti-Sandhu,Samuel Vasa,Mumbai,Maharashtra,19.04926455385627,72.84978026297857,72,2087,102,97.86,1887,263,74.84,4866,437,50.63,2898,499,83.43,3392,162,25.25
384,"Chokshi, Swaminathan and Sawhney",Lipika Singh,Hyderabad,Telangana,17.400572367256167,78.52150158852494,82,2111,295,36.11,3683,243,82.32,3233,368,67.13,3130,431,54.61,4613,461,39.93
385,Buch LLC,Chakradhar Baral,Delhi,Delhi,28.57697103767402,77.24766042152405,52,1396,319,20.76,1530,2,21.6,4980,3,77.67,847,99,57.45,4222,186,65.75
386,"Divan, Bhatti and Date",Harshil Verma,Bangalore,Karnataka,12.95837593508773,77.5860129752529,67,777,486,26.02,2265,124,91.24,4655,87,39.3,4720,316,98.91,4231,38,21.47
387,Nair-Raj,Adya Ghosh,Pune,Maharashtra,18.543761438056137,73.88363048936414,74,2136,340,50.07,1720,267,65.54,719,150,33.45,2313,111,54.02,2971,184,40.05
388,"Wali, Menon and Setty",Kritika Pau,Pune,Maharashtra,18.512015399817976,73.85483441516354,91,2658,150,85.64,4306,83,84.95,3318,175,97.77,3842,307,68.33,2070,82,38.33
389,"Sani, Chaudhary and Contractor",Zansi Krishnamurthy,Kolkata,West Bengal,22.601633773586016,88.37211482297799,80,2932,156,20.57,2914,15,84.64,2406,210,69.4,3074,165,24.36,1336,194,39.99
390,"Kale, Sani and Seth",Udant Varty,Pune,Maharashtra,18.4841109705729,73.86023101314527,52,4404,205,56.54,4845,333,35.19,3111,425,98.51,4325,474,87.38,4438,33,62.85
391,Sachdev LLC,Ira Pai,Mumbai,Maharashtra,19.05835003949115,72.91113033659548,89,3762,473,46.34,2118,463,28.81,3093,258,47.02,552,35,71.85,2786,112,66.56
392,Rastogi-Sagar,Vasatika Ahuja,Chennai,Tamil Nadu,13.05258562777753,80.22716166798442,95,1949,178,24.2,1763,58,77.7,595,90,76.24,648,111,52.32,3905,424,92.72
393,"Chandran, Munshi and Sane",Ria Gandhi,Hyderabad,Telangana,17.372140856765014,78.46328511366544,73,1732,196,56.02,1371,176,32.51,1488,258,37.81,1002,86,21.29,3170,405,50.88
394,Kumer-Prasad,Faraj Varkey,Chennai,Tamil Nadu,13.117135708273963,80.23050825807843,99,4617,222,40.38,1334,62,87.99,1612,411,40.9,1369,182,67.33,4612,229,94.13
395,Som Inc,Siddharth Doctor,Lucknow,Uttar Pradesh,26.809419976268742,80.98266603921405,81,1177,88,48.15,3322,445,78.1,2778,190,60.95,4021,84,21.01,4855,282,72.16
396,Chada Inc,Nakul Pathak,Delhi,Delhi,28.61150181293688,77.19658882851458,96,3158,286,76.45,1418,490,87.35,745,80,45.57,4814,268,20.1,2127,404,93.01
397,Char-Pradhan,Victor Sachdeva,Hyderabad,Telangana,17.420956523164698,78.47593937215285,71,2528,433,61.72,2224,48,43.92,2658,414,33.41,4371,164,69.29,2366,424,86.68
398,Bhasin PLC,Ishaan Subramaniam,Lucknow,Uttar Pradesh,26.885908468894023,80.9917334686504,72,4258,275,29.97,2913,306,45.33,4829,137,41.03,1800,302,35.12,704,286,75.01
399,"Narayan, Das and Roy",Varenya Kade,Mumbai,Maharashtra,19.091869214620743,72.92198311414133,51,2537,235,96.91,1813,245,73.7,3849,432,22.86,2999,89,35.35,4079,154,48.49
400,Sampath-Behl,Nirja Bains,Delhi,Delhi,28.60766031240554,77.1844670622046,76,3149,182,70.87,4998,288,22.52,3225,469,76.35,4533,487,72.26,3674,164,39.29
401,Muni-Pandey,Caleb Datta,Lucknow,Uttar Pradesh,26.88973188848378,80.92150584328009,91,1156,208,81.27,2605,285,78.12,4577,349,59.37,3789,454,24.3,1291,449,37.79
402,Tripathi and Sons,Krish Vala,Ahmedabad,Gujarat,23.018647746462474,72.58512014768083,51,665,492,26.34,3068,442,86.86,3166,125,27.54,4353,237,45.07,4592,181,96.17
403,Subramaniam and Sons,Manan Bhalla,Delhi,Delhi,28.60253489098483,77.20401244324198,75,1089,129,23.76,1638,331,53.21,3699,368,33.74,2951,486,31.95,4247,238,96.69
404,Palla PLC,Aarna Gole,Mumbai,Maharashtra,19.087393358476007,72.83436520405607,66,3321,152,21.56,709,14,81.19,3254,404,28.2,4885,21,66.41,1605,136,77.99
405,Contractor-Mallick,Anirudh Mander,Ahmedabad,Gujarat,23.06074594404561,72.53196934799062,89,4758,12,35.1,1564,337,33.97,1917,355,69.01,838,166,72.94,1590,338,90.7
406,"Kara, Sanghvi and Bal",Tarak Sen,Mumbai,Maharashtra,19.070327308744364,72.83248308203942,82,1762,121,53.15,2720,254,45.78,1154,308,27.54,3324,214,77.69,2107,425,93.52
407,"Loke, Balakrishnan and Gole",Vasatika Garde,Ahmedabad,Gujarat,22.98097920160458,72.59303233880627,58,571,358,94.87,733,91,97.94,2942,342,80.34,2193,57,40.42,2339,419,60.92
408,More-Nori,Nirja Dhar,Bangalore,Karnataka,12.928725672776526,77.54581084752348,92,4016,219,56.56,1292,278,98.91,610,229,21.64,1486,29,27.14,3897,265,70.32
409,Ahuja-Golla,Yasti Lalla,Chennai,Tamil Nadu,13.083557928944758,80.25945952314828,97,4080,105,43.22,3610,205,61.01,589,459,39.95,3990,401,26.29,566,186,53.5
410,Rattan Inc,Hema Setty,Hyderabad,Telangana,17.369970322974588,78.51416535311812,88,768,374,64.95,2666,93,94.74,1262,344,91.25,3233,105,54.09,1778,39,53.48
411,Balasubramanian Inc,Victor Radhakrishnan,Pune,Maharashtra,18.548784267676766,73.8421841360257,78,2276,69,28.95,834,224,61.82,3672,309,77.48,4267,401,95.67,4658,309,23.07
412,"Wali, Kale and Puri",Kevin Chopra,Lucknow,Uttar Pradesh,26.806539564971338,80.96223027197014,91,2962,194,68.76,1859,300,43.33,2679,440,25.84,4576,493,37.42,1313,492,54.71
413,Setty-Om,Samaksh Virk,Ahmedabad,Gujarat,22.999004642832503,72.52349449610308,75,1768,185,65.47,1714,317,41.35,3004,19,85.69,2506,329,40.54,902,166,73.88
414,Pingle LLC,Mason Char,Mumbai,Maharashtra,19.05554447774774,72.90462231478382,84,1515,98,83.36,4919,462,94.36,1964,368,59.44,3607,166,28.07,2502,390,53.76
415,"Nair, Chad and Ben",Vamakshi Barad,Jaipur,Rajasthan,26.959999084959883,75.80403503980465,99,3222,81,98.94,783,198,33.8,597,48,87.74,4968,349,68.45,4666,259,89.79
416,Dugar PLC,Girik Subramaniam,Bangalore,Karnataka,12.93373864181594,77.60610129680389,74,1583,74,40.07,712,270,66.37,792,489,68.06,3830,153,74.39,3425,142,46.61
417,Bumb LLC,Aarav Sankar,Jaipur,Rajasthan,26.926790425354113,75.79033021332492,73,4601,373,60.77,2158,499,64.44,2339,134,74.55,3541,326,71.43,3493,203,30.61
418,Samra-Sunder,Kamala Bassi,Delhi,Delhi,28.596121550344463,77.17152335704328,62,906,339,92.71,4578,233,79.17,2234,28,99.48,1030,6,88.89,1586,175,84.92
419,"Sathe, Sachdeva and Mahajan",Veer Subramaniam,Ahmedabad,Gujarat,22.983895663471433,72.57000155029775,56,3576,191,82.82,1917,45,59.94,3119,47,38.59,1423,196,58.91,4840,261,73.92
420,Vala Inc,Inaya Chaudhari,Delhi,Delhi,28.57670957463662,77.19282675059945,85,1485,324,58.99,2886,63,41.78,2696,476,69.92,4618,320,30.76,3066,251,39.35
421,Sani-Choudhry,Krish Kumar,Ahmedabad,Gujarat,23.032353157568437,72.53090116989922,94,4103,466,95.63,2294,229,33.55,3966,268,56.83,740,45,43.15,4988,328,62.92
422,Sur-Vyas,Viraj Chacko,Ahmedabad,Gujarat,23.01570768829442,72.56534049896945,69,4985,213,24.58,604,429,69.67,2406,2,23.16,2396,17,72.99,1271,418,52.15
423,"Morar, Bath and Kannan",Nilima Kurian,Jaipur,Rajasthan,26.878768380146532,75.76467913075142,50,1209,314,94.48,4393,439,77.52,2221,257,21.16,3824,396,69.05,4172,199,95.11
424,Bhakta-Amble,Abdul Amble,Hyderabad,Telangana,17.347150137630095,78.45644704898599,57,3118,443,24.04,4345,248,65.56,4191,15,29.54,1313,152,62.48,3748,198,68.59
425,Mitra and Sons,Zinal Amble,Mumbai,Maharashtra,19.090581081265523,72.85629067892393,95,1911,466,63.78,4190,245,79.07,2316,93,71.93,1282,487,74.64,2169,195,32.67
426,Kumer LLC,Samesh Mutti,Pune,Maharashtra,18.55832686599978,73.83254316202918,65,1985,381,91.24,3792,427,31.32,752,357,65.37,4555,263,70.99,2056,313,60.17
427,Dar-Amble,Janaki Chhabra,Delhi,Delhi,28.627507076372982,77.18110633714538,63,3450,366,41.02,878,74,90.6,4727,133,64.27,507,73,90.51,3458,76,89.0
428,Sani-Gill,Pooja Kulkarni,Ahmedabad,Gujarat,23.0473191905979,72.5771813225511,61,3434,317,57.78,3793,156,66.59,4019,300,22.55,4273,415,66.88,1651,18,73.72
429,Rai PLC,Pallavi Pau,Pune,Maharashtra,18.536016183768105,73.82444287694697,100,4614,143,45.95,3829,222,30.15,2407,326,57.54,3639,144,82.29,1717,61,87.4
430,"Karpe, Tella and Pandya",Mekhala Jani,Kolkata,West Bengal,22.597918733591342,88.3408331298302,72,1503,383,96.17,3938,189,56.95,2410,132,93.97,4289,101,39.9,2731,326,40.03
431,Ranganathan Ltd,Vasudha Gola,Delhi,Delhi,28.57469437146465,77.2275298016116,64,2966,215,85.89,724,472,87.58,3021,311,51.81,4551,334,74.25,4842,393,91.07
432,Sarin Inc,Veda Kulkarni,Hyderabad,Telangana,17.416778532985695,78.45805113663107,77,2966,360,76.72,1237,51,91.8,4349,454,69.99,1017,334,92.18,4444,280,80.45
433,Brahmbhatt-Munshi,Hemangini Rao,Bangalore,Karnataka,12.936667610770987,77.57883836360335,83,2438,323,67.01,735,437,41.17,1558,481,82.39,3690,120,50.86,2542,427,78.31
434,"Sanghvi, Ravel and Sahni",Jagat Karpe,Kolkata,West Bengal,22.576823720549186,88.37293476904588,51,2439,14,85.65,4778,87,76.9,4038,382,82.71,3602,175,82.33,1205,249,47.72
435,Contractor-Ravel,Neel Chaudhry,Ahmedabad,Gujarat,23.033694050533732,72.53199307125584,81,2135,216,51.38,1211,312,28.0,2822,31,61.54,3216,62,77.98,3169,226,91.01
436,Nair and Sons,Yashoda Rattan,Pune,Maharashtra,18.539288530205006,73.89403229158609,72,2198,491,55.8,2388,338,22.68,686,304,88.64,1078,295,24.76,2613,126,71.04
437,"Sharma, Pathak and Chakrabarti",Charles Dyal,Jaipur,Rajasthan,26.938512153704316,75.75330716349546,71,2591,438,78.4,1759,65,64.83,1448,268,51.31,4982,498,66.52,3477,57,88.15
438,Cherian-Kohli,Abdul Chand,Lucknow,Uttar Pradesh,26.852504232514896,80.97737522168657,100,2395,34,48.62,1248,149,75.59,2790,413,91.1,2365,83,30.42,4849,408,48.88
439,Rattan-Viswanathan,Urishilla Saran,Chennai,Tamil Nadu,13.120845077967504,80.24849020972489,74,4740,182,25.11,4486,19,83.66,4859,24,39.22,1876,14,97.39,4878,476,31.65
440,Randhawa LLC,Devansh Lall,Bangalore,Karnataka,12.96174943158613,77.62460709686991,71,3898,269,25.95,4051,32,47.22,709,468,42.42,3438,354,84.91,922,375,46.59
441,"Nori, Kant and Nath",Kamala Buch,Jaipur,Rajasthan,26.91790849493023,75.81060712960297,71,1573,432,29.23,1009,327,20.52,2593,315,24.25,1405,133,28.78,2521,203,56.42
442,Bose PLC,Leena Rattan,Pune,Maharashtra,18.53189782403411,73.875488410988,98,2902,466,89.57,2323,280,58.36,4038,58,83.65,1464,477,29.74,4293,242,62.67
443,"Comar, Wali and Uppal",Dakshesh Gill,Jaipur,Rajasthan,26.917822651413204,75.7378229613543,91,3712,357,57.78,3441,45,21.27,2063,212,53.36,2476,120,67.56,4631,366,60.86
444,Palla LLC,Reva Anne,Lucknow,Uttar Pradesh,26.880696398028217,80.97946804693471,55,4537,99,77.03,4732,72,27.36,525,155,38.33,2387,318,47.59,1030,423,63.68
445,"Divan, Keer and Chauhan",Zarna Mangal,Jaipur,Rajasthan,26.95820734801194,75.77409407513021,64,1651,6,51.43,2634,353,46.14,674,495,38.54,2947,391,22.79,590,331,87.34
446,Kunda and Sons,Bahadurjit Uppal,Bangalore,Karnataka,13.005797037149671,77.59163190541018,92,2945,29,40.7,2277,312,54.97,1834,313,92.11,1491,478,63.33,3872,499,33.61
447,Dua Ltd,Omkaar Banik,Bangalore,Karnataka,13.021233433762726,77.58143095305068,86,2456,466,47.78,1722,342,42.36,821,275,86.71,4056,127,51.03,2442,325,45.28
448,Goel Ltd,William Acharya,Hyderabad,Telangana,17.407207093820276,78.5253195780465,82,4407,304,83.53,4167,132,66.55,4650,417,64.28,4459,367,28.09,4305,251,91.09
449,Shetty-Sen,Gabriel Majumdar,Bangalore,Karnataka,12.935382289915925,77.61090420045005,57,1307,472,70.02,2277,54,24.43,4547,388,69.29,4104,366,84.15,1740,393,64.84
450,"Naidu, Mutti and Dora",Ira Rana,Kolkata,West Bengal,22.592161814649682,88.31422182636042,93,686,143,95.01,1804,60,31.57,3727,209,57.95,1583,287,93.21,2258,321,66.67
451,Bir-Singh,Sai Vasa,Kolkata,West Bengal,22.53928851178549,88.33203192799255,93,1807,110,74.38,1201,344,75.62,2372,443,51.33,934,300,80.53,597,375,58.25
452,Mitter-Maharaj,Ekapad Chana,Hyderabad,Telangana,17.37523271246866,78.52412624706102,54,2784,231,65.61,3489,7,31.37,2567,486,93.24,520,377,85.79,1979,492,63.92
453,"Bhalla, Pandey and Tripathi",Ijaya Palan,Bangalore,Karnataka,12.928085359448298,77.60259837874281,88,1257,178,68.82,651,271,71.18,832,426,30.05,3422,179,37.32,2332,408,35.85
454,Mukherjee Group,Upkaar Hayer,Pune,Maharashtra,18.540694344097865,73.81198039604686,53,4731,71,95.39,1825,245,24.37,3491,56,53.48,2425,462,41.09,3085,198,63.75
455,Barad-Bhandari,Netra Agrawal,Ahmedabad,Gujarat,23.040146793722638,72.60189889996808,55,4354,209,83.06,1801,175,52.59,1410,184,47.56,1972,81,36.68,4147,487,99.77
456,Mangat-Bose,Parth Ray,Bangalore,Karnataka,12.971425568226346,77.55230582791343,94,4766,219,21.92,4222,492,34.19,4996,458,59.85,1599,12,81.21,579,342,65.28
457,"Chana, Tripathi and Rajagopalan",Elijah Thakur,Kolkata,West Bengal,22.592141564832808,88.38849252088137,81,2706,79,62.73,2211,115,28.77,1449,53,56.61,3137,23,95.83,2723,239,23.55
458,Barman-Sengupta,Harini Dada,Lucknow,Uttar Pradesh,26.86746809347409,80.97506149646725,79,4058,499,75.07,1306,316,65.36,2575,208,61.51,889,167,77.35,3069,138,83.71
459,"Guha, Nagy and Soni",Zashil Savant,Bangalore,Karnataka,12.96561989979555,77.55934525267062,96,2080,82,79.9,4830,270,94.27,3014,367,31.19,3913,269,90.52,2272,121,51.72
460,"Dora, Bhatia and Seshadri",Veda Kohli,Pune,Maharashtra,18.543950560648753,73.83028575991437,84,1461,41,37.05,3222,192,24.38,3831,428,61.05,3115,475,71.1,1623,419,32.29
461,Oza Ltd,Tara Sharma,Hyderabad,Telangana,17.341254222689738,78.51683669158196,89,4347,272,89.37,1825,149,53.72,3529,341,39.39,1854,458,51.01,4311,48,89.0
462,Thaman Ltd,Vasatika Dada,Jaipur,Rajasthan,26.955711333134357,75.80155651995352,65,4075,190,96.47,4633,130,76.6,600,292,34.75,505,69,54.06,3974,303,35.84
463,Baral and Sons,Ekansh Raja,Mumbai,Maharashtra,19.089755326447023,72.87731663841133,62,1375,172,38.94,1659,101,57.02,2900,339,25.19,690,317,26.03,3123,114,93.66
464,"Sarma, Sarna and Viswanathan",Victor Mutti,Kolkata,West Bengal,22.621712643182132,88.38862195877421,99,2918,460,90.61,3369,309,84.52,3871,303,81.01,647,375,22.52,1903,342,55.34
465,"Dutt, Patla and Pradhan",Ira Varty,Pune,Maharashtra,18.527587227122716,73.86547693608622,91,4698,6,27.76,1742,269,34.37,2843,251,54.2,4853,88,75.64,3078,250,79.42
466,Ram-Rege,Adya Kothari,Jaipur,Rajasthan,26.918954996492147,75.8352646715034,79,1501,154,24.46,847,291,96.77,852,373,70.13,4050,188,55.07,831,490,63.76
467,Ben-Natt,Girik Rastogi,Bangalore,Karnataka,12.924219670853207,77.54701917638914,68,3884,9,30.34,2331,209,50.81,3455,437,78.21,4605,256,64.18,4108,6,40.53
468,Narayan Inc,Faqid Gokhale,Kolkata,West Bengal,22.549907080997283,88.36570787662389,66,4566,33,24.62,2069,494,47.33,1518,303,74.35,1610,216,64.61,1239,218,73.69
469,"Raju, Mander and Krishnan",Dipta Pandya,Bangalore,Karnataka,13.015667924511535,77.57052967588658,68,3345,35,87.6,4435,360,89.97,1679,111,57.64,4333,449,42.19,541,76,96.63
470,"Doctor, Nath and Bumb",Amruta Goswami,Lucknow,Uttar Pradesh,26.88397302504846,80.98039335667919,77,1981,408,24.72,2418,337,65.11,4036,365,51.03,1124,381,58.07,4378,178,81.57
471,"Dhaliwal, Palla and Mukherjee",Wishi Iyengar,Chennai,Tamil Nadu,13.080790600075307,80.26421803992554,75,3801,5,41.73,3732,66,61.32,4150,5,50.08,4625,31,57.66,2449,144,68.32
472,"Ramanathan, Dayal and Chad",Wyatt Lanka,Chennai,Tamil Nadu,13.103301900766404,80.28381706459568,86,1157,407,28.3,4258,9,78.16,3002,417,71.2,2675,140,51.07,3960,415,99.25
473,Puri-Narasimhan,Veer Jain,Pune,Maharashtra,18.560791333026035,73.89763901920084,75,3280,401,43.63,2855,48,66.39,4319,190,59.58,3649,160,85.65,2628,153,41.23
474,Vyas Inc,Ishani Dugal,Ahmedabad,Gujarat,23.04545082286524,72.59795128989911,72,922,214,27.24,1897,486,33.0,1479,333,87.93,1578,31,56.09,4997,120,24.99
475,"Sampath, Trivedi and Pathak",Jagdish Brar,Kolkata,West Bengal,22.54512237022685,88.32703494081449,58,4181,133,73.44,3280,110,73.94,1476,431,89.98,4051,311,68.29,2654,123,22.57
476,Patil LLC,Abeer Basak,Jaipur,Rajasthan,26.937537508602905,75.80299551562672,61,4766,284,30.67,2324,320,30.68,1871,278,33.64,2852,151,91.64,1737,149,76.86
477,Kala LLC,Kamya Murty,Hyderabad,Telangana,17.33634026264322,78.46497456895787,50,3210,125,88.15,2991,218,84.47,2780,381,30.9,1045,346,89.3,2266,396,86.42
478,Handa-Kara,Anvi Swaminathan,Lucknow,Uttar Pradesh,26.82491870746932,80.9223705683736,50,952,408,85.38,4560,56,99.18,607,339,70.43,1695,259,91.23,2341,380,70.81
479,Dubey Inc,Yasti Mammen,Bangalore,Karnataka,12.949161233867896,77.62331266026015,96,2897,438,21.09,904,282,50.19,1472,12,44.1,2569,215,41.6,1005,267,92.4
480,Chaudhuri-Tripathi,Tristan Dave,Lucknow,Uttar Pradesh,26.823894972612862,80.9721398262418,83,2475,336,91.66,2221,458,55.58,2126,302,21.49,3858,278,22.8,2341,326,75.84
481,"Vyas, Barad and Nayar",Pallavi Sridhar,Lucknow,Uttar Pradesh,26.8811789436286,80.92301390200956,81,2157,173,22.32,3325,112,23.71,1203,43,91.09,2938,284,40.89,1894,0,49.68
482,"Deep, Puri and Dube",Yadavi Palan,Jaipur,Rajasthan,26.91115711936734,75.74066136001834,97,3041,151,39.17,4345,132,21.1,1374,104,38.15,1116,97,42.3,756,160,34.5
483,Golla Ltd,Owen Shankar,Hyderabad,Telangana,17.396969944019943,78.49289928474668,74,3575,330,22.59,4710,70,93.71,4309,159,94.34,4744,404,92.75,2220,243,93.97
484,"Gandhi, Sarma and Bassi",Zarna Sharma,Chennai,Tamil Nadu,13.085942068227522,80.26180956026008,89,3664,25,46.87,3692,82,30.29,2911,153,77.39,3843,29,71.94,1571,374,28.29
485,Patla-Khanna,Abhiram Arora,Pune,Maharashtra,18.479042461076254,73.83037843093115,94,3466,382,61.11,564,56,55.66,2607,241,81.01,2311,89,26.54,2122,397,63.44
486,Mane-Sen,Ladli Chaudhuri,Ahmedabad,Gujarat,23.027332058372643,72.53419882085336,50,2553,114,83.73,1799,375,85.23,4053,180,36.12,671,147,30.83,2566,250,45.12
487,Walla and Sons,Janaki Lad,Pune,Maharashtra,18.50974478465636,73.88948683753222,65,787,381,47.04,1915,348,91.15,1773,13,38.74,4642,143,32.45,1569,366,41.71
488,Singh-Hari,Adya Khalsa,Ahmedabad,Gujarat,22.998515779096206,72.59448209649807,88,3717,481,76.44,4093,270,61.55,1059,179,61.7,1125,66,70.43,950,63,71.67
489,Sastry-Shenoy,Urishilla Oza,Lucknow,Uttar Pradesh,26.894655084038174,80.91069650723799,54,4354,283,35.0,1468,482,65.2,616,376,33.77,4563,432,78.83,1397,298,38.5
490,Raja-Thakkar,Qarin Tara,Pune,Maharashtra,18.490209763275974,73.86323302545716,71,1947,386,80.05,868,110,73.57,3546,291,44.43,2754,356,88.77,4228,247,93.31
491,"Sahota, Edwin and Iyengar",Shivansh Saini,Bangalore,Karnataka,12.95246987433732,77.63930359877388,78,1107,74,38.88,732,356,96.91,543,263,45.72,952,57,95.25,581,441,52.48
492,"Devi, Krishna and Ben",Janya Rattan,Jaipur,Rajasthan,26.880701544423474,75.73950351602976,52,2264,165,31.48,2742,374,68.21,1008,167,32.77,1918,487,36.14,1236,296,74.19
493,"Srivastava, Prabhu and Chauhan",Shravya Gole,Chennai,Tamil Nadu,13.055231692995124,80.24579666613404,61,1725,188,34.83,3583,75,64.76,3939,213,36.41,1253,427,44.78,4674,464,78.22
494,"Varty, Dash and Mane",Veer Chaudhry,Pune,Maharashtra,18.538775410557705,73.86121055282608,75,1735,77,34.57,1420,157,21.16,4428,149,83.08,3872,280,39.23,4444,451,74.64
495,Dyal LLC,Warinder Sankaran,Ahmedabad,Gujarat,22.983976887186923,72.60741396933494,65,1529,434,61.03,1188,19,26.48,1416,15,33.38,3223,278,48.7,2707,499,92.27
496,Varghese-Din,Rohan Dhingra,Lucknow,Uttar Pradesh,26.85095458033954,80.97536999884534,100,3171,89,87.58,4772,420,66.17,3445,90,22.28,3510,235,93.17,4448,114,38.49
497,Chand-Kapadia,Urvashi Andra,Mumbai,Maharashtra,19.080353821734263,72.83587253457468,86,4462,175,26.37,1969,130,94.9,1298,119,70.35,3411,442,66.01,2502,294,26.88
498,Palla-Bala,Oviya Tata,Kolkata,West Bengal,22.607291872808858,88.35676305469705,71,3677,20,76.56,4759,328,89.34,2260,443,98.08,1725,384,79.06,2191,0,24.44
499,Bera-Randhawa,Zansi Walla,Chennai,Tamil Nadu,13.127269814700028,80.30569753714808,78,4222,53,72.35,4122,121,98.61,2833,252,46.5,667,352,59.21,1679,40,90.23
500,"Prakash, Keer and Raju",Vidhi Mital,Delhi,Delhi,28.57365625102393,77.24519869084043,63,1975,183,89.8,2600,40,62.23,3775,59,29.49,4185,398,22.31,3435,172,97.86
501,Prasad and Sons,Champak Rao,Bangalore,Karnataka,12.986697346715095,77.5991431869407,77,3396,358,39.53,2765,166,83.03,1318,265,65.63,585,127,25.14,3015,87,44.2
502,Nagar Inc,Nihal Bhasin,Ahmedabad,Gujarat,23.051197013491766,72.53259359270216,54,1308,221,56.01,4289,409,87.23,2668,408,92.51,2177,336,63.03,961,481,75.48
503,"Nayak, Dhingra and Devan",Aachal Soni,Lucknow,Uttar Pradesh,26.89450618179735,80.9755989716368,96,1478,314,94.07,1323,129,71.84,4235,30,82.72,2482,481,77.5,3401,97,20.71
504,Mangat Group,Shivani Natt,Mumbai,Maharashtra,19.046136378213596,72.85356208348881,98,2963,327,72.8,3931,22,47.1,3565,20,69.8,1986,208,37.23,616,87,35.09
505,"Dewan, Singh and Sen",Jalsa Parsa,Hyderabad,Telangana,17.389484775908453,78.51254250178691,79,1225,178,51.1,4651,278,57.6,3759,218,45.2,941,435,77.75,2154,250,75.14
506,"Ahluwalia, Buch and Bahl",Hemangini Bahri,Hyderabad,Telangana,17.386938585950396,78.45718812741507,95,3001,275,30.51,4713,250,88.63,1406,80,63.35,770,185,84.85,2298,334,25.27
507,Kale-Doctor,Jairaj Panchal,Chennai,Tamil Nadu,13.098662936639474,80.2368619811286,54,3862,111,41.0,1297,468,43.88,4608,288,27.3,843,168,52.95,1159,464,57.48
508,"Wable, Sampath and Choudhry",Owen Mane,Jaipur,Rajasthan,26.91841822583749,75.81237295069994,61,1716,223,66.5,1279,399,93.9,1102,30,74.32,1706,171,79.71,3737,140,73.01
509,Khanna-Mitra,Ekta Uppal,Mumbai,Maharashtra,19.02871674212256,72.83422045912606,65,4551,213,77.45,3350,8,38.38,4795,497,78.01,3581,259,52.32,2622,70,81.28
510,Batta and Sons,Sanya Brar,Bangalore,Karnataka,13.012522020586157,77.59847017979527,75,2697,58,29.95,3392,12,79.96,3133,233,97.2,1757,204,74.27,4319,136,56.31
511,Shankar-Bhatnagar,Bhavini Sheth,Hyderabad,Telangana,17.414834418822434,78.47389326679169,75,3306,326,67.97,2393,411,70.44,2291,473,40.83,2791,451,81.12,3843,491,70.42
512,Tata PLC,Oliver Nazareth,Pune,Maharashtra,18.552610316060022,73.84474200075076,97,1278,392,64.03,3806,410,79.97,4027,404,21.48,2032,134,99.35,3050,446,63.17
513,"Babu, Varma and Khurana",Nidhi Bora,Bangalore,Karnataka,12.965707215825079,77.56416092730446,70,1472,108,61.12,3402,306,54.99,2311,35,63.65,3922,45,47.63,2086,98,24.18
514,"Dhawan, Manne and Sanghvi",Neel Oza,Lucknow,Uttar Pradesh,26.806103610443426,80.93186709741418,88,3310,384,75.21,4218,319,94.61,4411,448,76.54,4862,8,52.88,3247,150,79.42
515,Pandit and Sons,Dipta Nadig,Jaipur,Rajasthan,26.920159336588117,75.80075824175503,85,2623,156,87.0,521,51,70.6,1340,131,83.23,2153,470,33.25,1134,437,33.79
516,"Saha, Grover and Chada",Amara Rana,Pune,Maharashtra,18.534667465767242,73.82628408125869,82,1098,190,45.84,2000,208,43.06,3642,323,35.5,738,160,36.33,3382,174,22.54
517,"Patel, Bir and Vora",Sai Patil,Ahmedabad,Gujarat,23.024519052325157,72.56616029403202,79,3841,199,91.12,1342,37,71.08,2590,345,40.94,1414,288,75.47,3311,166,56.09
518,"Tripathi, Tripathi and Bahri",Odika Ganesh,Kolkata,West Bengal,22.601926135043826,88.34557616770675,86,724,311,32.85,2260,99,42.95,1536,131,61.01,1938,339,93.36,4953,342,89.25
519,Singhal-Bassi,Arin Dass,Bangalore,Karnataka,12.9579100736634,77.63431863409646,72,1340,195,33.84,4141,192,43.49,1224,496,46.45,3516,387,51.57,4515,409,32.07
520,"Ram, Prakash and Kulkarni",Zayan Buch,Ahmedabad,Gujarat,23.023205110386545,72.5812112629369,59,2314,34,41.34,691,401,51.97,1487,8,88.84,1960,320,34.39,3239,256,21.03
521,"Babu, Parikh and Bir",Ojas Ranganathan,Pune,Maharashtra,18.4888224839238,73.8960989710008,54,1606,378,29.56,895,190,88.19,1302,29,57.9,3579,105,42.81,2384,397,28.8
522,Khosla-Chawla,Girish Bhatt,Chennai,Tamil Nadu,13.076732341836836,80.28222980250699,85,624,386,38.43,4826,50,60.02,3082,114,83.97,2758,289,56.4,2018,223,49.09
523,"Natarajan, Deol and Basu",Chatura Bal,Kolkata,West Bengal,22.60828739360751,88.32566439881593,83,3746,245,28.51,1373,392,74.31,4337,300,66.45,866,474,43.25,1121,498,66.41
524,Nigam-Gill,Fiyaz Chawla,Pune,Maharashtra,18.567112661525915,73.84847609792752,80,3431,236,85.74,3121,140,51.36,1026,3,81.85,3491,340,38.69,2037,367,35.44
525,"Shetty, Srinivas and Gopal",Nachiket Chad,Pune,Maharashtra,18.482643389835893,73.87921855480275,59,4625,103,31.12,4835,167,41.09,2165,324,46.61,4241,87,78.88,2837,329,84.16
526,Bhatnagar Ltd,Dayamai Karnik,Delhi,Delhi,28.58049548952958,77.24719277583047,68,3471,6,79.78,589,310,96.37,1638,236,86.51,585,462,20.63,2494,64,80.26
527,Bansal-Memon,Bhanumati Savant,Pune,Maharashtra,18.48338264489517,73.87538609976751,81,2517,282,23.83,2779,108,68.29,959,22,41.97,2993,482,63.14,2570,68,75.67
528,Bassi and Sons,Karan Vyas,Bangalore,Karnataka,12.974339962212268,77.61653536223692,50,2915,0,95.88,956,206,94.72,3052,15,63.69,631,191,83.5,2865,66,59.0
529,Mutti LLC,Ayush Banerjee,Delhi,Delhi,28.58487529476837,77.1969027126219,54,3596,218,76.89,2780,426,36.27,4920,21,37.12,1403,152,41.3,3345,432,49.22
530,"Rao, Solanki and Kulkarni",Eshana Soni,Bangalore,Karnataka,12.94034119440976,77.63041770531572,94,2109,463,20.54,4949,299,31.75,3308,484,58.04,3956,310,68.26,3538,49,50.05
531,Halder LLC,Anita Saxena,Hyderabad,Telangana,17.42682079996228,78.44777484453189,53,1217,229,81.11,1504,109,88.47,3398,71,45.45,1721,136,73.51,1354,313,60.25
532,Batta-Narula,Peter Shan,Jaipur,Rajasthan,26.90951678989328,75.81946368977106,65,4061,454,61.13,844,195,74.47,3743,303,41.34,2263,272,72.4,3228,308,26.19
533,Dash-Pillai,Dayita Palan,Jaipur,Rajasthan,26.898179826532544,75.78672124472503,73,1516,171,82.35,3211,416,34.93,4568,445,97.36,3304,148,55.67,1415,90,74.58
534,Ratta-Sarraf,Utkarsh Chakraborty,Bangalore,Karnataka,13.00958219139517,77.59714349125457,65,4065,86,61.8,2962,151,41.55,2831,480,32.81,1726,187,47.73,631,114,48.12
535,Nori-Grover,Darika Pau,Chennai,Tamil Nadu,13.043994320841119,80.22941794678319,51,4970,40,71.28,1616,419,84.05,4185,443,82.99,1784,140,86.87,1616,373,37.98
536,Tank-Pillai,Abha Dugal,Mumbai,Maharashtra,19.049987411275595,72.8418971989761,98,2460,122,82.91,1125,242,56.31,1131,229,98.73,1189,130,80.68,4093,56,42.27
537,"Loke, Butala and Samra",Advaith Acharya,Jaipur,Rajasthan,26.93636713007268,75.75642604179146,77,1548,330,52.41,4879,127,73.64,2956,106,21.59,4935,451,45.7,1360,341,34.42
538,Sani PLC,Hemangini Mangat,Jaipur,Rajasthan,26.90595054543982,75.79502497307686,81,1857,297,20.22,2479,104,45.47,1481,207,75.92,2496,3,28.24,793,17,92.13
539,Memon LLC,Abhiram Swamy,Mumbai,Maharashtra,19.110144755308475,72.87482871673983,76,3926,372,88.0,4494,9,50.5,4817,388,40.23,4881,490,25.74,3188,271,33.52
540,Buch LLC,Chandani Andra,Bangalore,Karnataka,12.924711559991737,77.61852947351647,69,615,416,50.47,2178,355,99.26,2056,207,23.24,1609,475,27.54,1499,129,90.63
541,"Merchant, Mohan and Sehgal",Brinda Kashyap,Delhi,Delhi,28.59641040154317,77.22763271966862,73,2595,177,59.68,722,147,39.81,2705,262,52.23,929,262,66.63,2796,494,65.78
542,"Sandhu, Ganesan and Sawhney",Kashvi Gulati,Pune,Maharashtra,18.48711320114712,73.87222824096916,61,2301,62,20.62,1243,488,60.52,4943,50,94.82,4626,25,24.13,4185,268,89.4
543,Sekhon-Basak,Rajeshri Rana,Mumbai,Maharashtra,19.109704112524295,72.85562760884545,99,2646,483,59.37,962,364,87.55,4455,64,20.94,4281,458,46.95,786,428,57.93
544,"Pandit, Saran and Maharaj",Nihal Ramakrishnan,Bangalore,Karnataka,12.991015057350983,77.59586547531451,84,2120,164,98.92,2068,363,39.14,1421,264,67.03,1102,23,80.26,949,79,94.21
545,"Bhandari, Borde and Ravi",Thomas Lall,Kolkata,West Bengal,22.558637781993035,88.3207505406627,82,3450,488,42.26,3847,458,53.22,904,337,60.11,939,490,43.55,2838,455,36.92
546,Varghese-Dutta,Pahal Khatri,Jaipur,Rajasthan,26.892794640124073,75.80261627905313,82,4292,186,51.63,2236,139,69.21,2120,300,89.87,1484,265,81.06,3740,298,64.38
547,Dhar PLC,Bhavani Wali,Hyderabad,Telangana,17.422120448226305,78.51330647765353,100,3441,382,74.98,4539,189,58.5,3452,377,26.72,2418,228,79.64,3203,455,30.07
548,"Sarma, Banerjee and Date",Nitara Guha,Bangalore,Karnataka,12.927509389007826,77.63448473881803,92,1477,208,85.18,4451,401,56.76,3618,174,74.52,1027,268,39.67,3616,309,55.78
549,Keer Ltd,Qabil Deshpande,Bangalore,Karnataka,13.012319503070584,77.61167323119058,86,3566,226,53.39,1164,93,49.0,2094,450,74.41,4905,124,78.31,752,201,65.59
550,Pathak-Rajagopal,Indrajit Shah,Pune,Maharashtra,18.4873081070356,73.84567593874266,61,1283,431,44.77,1856,491,66.93,1065,151,73.53,3496,171,79.82,1919,224,68.45
551,"Bali, Dube and Sengupta",Anita Swamy,Kolkata,West Bengal,22.545273038292354,88.35206119398673,52,740,388,95.03,1514,495,69.95,3368,475,95.39,3967,233,51.8,2836,158,49.24
552,Prabhu-Sawhney,Ekani Bahl,Bangalore,Karnataka,12.962876112926603,77.62483543291593,50,2053,47,74.17,2632,228,72.26,1357,265,85.85,1861,294,36.83,1735,203,26.11
553,Devan PLC,Chandran Warrior,Hyderabad,Telangana,17.336800008894524,78.47884440415793,82,1512,223,29.52,3168,62,25.63,1784,328,23.36,1203,402,61.7,1499,136,72.43
554,Rao-Murthy,Quincy Chaudry,Lucknow,Uttar Pradesh,26.893324341070677,80.9089453959423,89,686,2,25.51,1554,339,70.48,1084,460,57.69,1162,434,93.71,4260,484,59.07
555,"Mallick, Krish and Comar",Amruta Dass,Jaipur,Rajasthan,26.89162182304619,75.8283770161644,59,2381,371,58.68,2264,24,96.26,4827,303,51.84,864,274,71.17,4616,72,30.95
556,Grewal Group,Abhiram Kaul,Lucknow,Uttar Pradesh,26.866631537512617,80.98014609095009,92,930,174,37.61,4958,267,63.28,1745,162,44.81,1422,75,33.83,4911,47,94.87
557,"Ram, Dalal and Lala",Matthew Aurora,Pune,Maharashtra,18.53253444972535,73.86261848068294,93,738,445,40.32,3369,404,77.22,551,437,56.11,4356,307,74.62,3111,17,96.45
558,Sehgal-Kala,Teerth Oommen,Pune,Maharashtra,18.523667588676155,73.87020891059097,78,2845,98,90.22,1912,280,64.54,2663,342,50.74,675,213,54.18,1946,477,88.53
559,"Mangal, Swaminathan and Iyengar",Devika Tara,Hyderabad,Telangana,17.346258039041196,78.50706859774608,62,575,115,27.17,1167,10,88.38,1037,366,54.59,1435,430,67.32,2670,479,87.51
560,Deshmukh Inc,Ubika Balay,Hyderabad,Telangana,17.344653447019546,78.46088938282588,61,1856,269,77.23,3870,319,94.37,1040,464,98.34,881,484,78.73,3421,487,27.89
561,Gera-Saxena,Faris Dhingra,Mumbai,Maharashtra,19.072876796546453,72.85782652607601,80,2830,446,41.69,1894,200,34.74,1314,237,27.09,805,375,61.2,4183,470,99.47
562,Nagarajan Ltd,Amaira Ramanathan,Chennai,Tamil Nadu,13.062423780770862,80.25069191115071,95,2402,367,80.83,598,125,54.95,1915,198,93.78,2890,157,85.12,2761,266,52.03
563,Bhattacharyya-Mannan,Upma Golla,Jaipur,Rajasthan,26.867214283597836,75.8275894995192,51,4513,252,77.79,4570,305,51.39,3338,499,58.42,2703,301,77.77,2445,445,33.05
564,Dugar-Ghosh,Zashil Raj,Ahmedabad,Gujarat,23.06022617628262,72.55444080038757,100,2559,316,20.59,921,189,52.42,2152,15,69.9,1965,203,69.21,2353,339,84.97
565,Trivedi-Kapur,Jairaj Kothari,Kolkata,West Bengal,22.611830249813966,88.33243301795287,99,640,414,60.73,4150,88,30.04,3165,308,86.41,3771,476,32.06,1099,18,38.06
566,Iyer and Sons,Saanvi Kota,Pune,Maharashtra,18.523531652056803,73.89051521835519,84,2289,94,31.15,4657,354,85.09,4562,295,48.84,902,148,86.88,4635,99,62.09
567,Tak Inc,Rushil Sharma,Bangalore,Karnataka,12.948377667548835,77.62351608465887,72,4126,272,89.3,1632,115,22.86,2856,355,54.43,3170,74,94.87,3903,115,30.24
568,Pillay-Sibal,Sathvik Solanki,Chennai,Tamil Nadu,13.08484456890436,80.22706409092866,66,516,379,89.73,2202,351,62.26,4310,275,52.76,2301,379,30.96,3490,345,57.97
569,"Dayal, Chadha and Bhatti",Devika Naidu,Hyderabad,Telangana,17.357022530137733,78.4855374628983,75,4848,23,53.47,4120,176,72.95,1363,471,49.98,3150,228,59.06,4777,73,64.65
570,Rao-Srinivas,Brijesh Verma,Chennai,Tamil Nadu,13.042085728482336,80.31166268194366,57,964,115,55.55,3690,13,36.6,685,238,94.04,676,303,40.71,4860,279,55.67
571,"Roy, Rout and Borah",Zehaan Srivastava,Hyderabad,Telangana,17.42185515063203,78.44316868935151,78,4971,150,44.26,1097,256,92.47,4856,68,86.31,1242,61,80.36,3318,268,25.56
572,Nadig Ltd,Rushil Patel,Mumbai,Maharashtra,19.02851419582773,72.89714504561307,75,2327,337,77.33,891,208,87.08,2051,300,28.72,2848,57,77.73,1362,124,58.8
573,Sengupta Group,Tejas Chowdhury,Ahmedabad,Gujarat,23.004194658779113,72.56485959608587,59,3528,49,48.69,1575,280,57.69,2707,5,28.65,4902,273,31.27,4555,115,57.52
574,"Varughese, Padmanabhan and Dave",Radha Nair,Jaipur,Rajasthan,26.896481569978988,75.75378246753468,75,1019,205,41.42,3150,442,52.89,1261,219,54.23,1250,107,90.16,1719,173,40.93
575,"Gopal, Dayal and Sant",Oliver Majumdar,Kolkata,West Bengal,22.58330895787188,88.3770307553092,83,589,497,54.58,2884,327,38.93,4819,253,27.89,1368,186,34.48,4295,180,93.73
576,"Bhakta, Dash and Vasa",Meghana Kibe,Hyderabad,Telangana,17.41388022639054,78.50066055611777,100,3351,334,27.32,1309,324,78.4,1779,452,69.53,4562,474,83.78,1027,225,53.42
577,Modi and Sons,Brijesh Soman,Pune,Maharashtra,18.52163637775458,73.81712248028084,90,3343,78,79.73,3809,388,30.54,4775,432,31.5,4467,228,56.56,3422,156,89.13
578,Naidu Ltd,Kamya Chakraborty,Kolkata,West Bengal,22.601275033515446,88.41097662064747,56,2384,69,21.01,4238,104,74.42,4194,294,61.79,713,47,46.26,3704,163,28.77
579,Pal PLC,Nakul Tata,Delhi,Delhi,28.591056876475104,77.2062897132811,53,4671,26,71.56,1659,482,87.4,3781,357,20.58,2117,318,32.66,1662,70,45.51
580,Brar-Krishna,Hamsini Bhasin,Jaipur,Rajasthan,26.913026605949522,75.80071040313763,99,1425,270,34.63,2031,146,38.28,2036,385,45.33,3030,267,33.41,4064,498,34.11
581,Maharaj and Sons,Ishani Dube,Kolkata,West Bengal,22.61174800156235,88.31419210326214,94,4234,49,38.59,3182,278,89.31,3664,106,74.18,3833,214,72.95,1346,221,52.67
582,"Mitter, Walla and Chander",Jeremiah Sura,Kolkata,West Bengal,22.52716487455024,88.32790240975534,60,1469,291,70.85,753,8,22.67,3270,294,58.72,2097,289,64.03,2617,125,28.93
583,"Ganguly, Dube and Garg",Edhitha Palan,Lucknow,Uttar Pradesh,26.893853269090105,80.92933470071031,78,1594,246,99.44,4048,117,93.02,2463,117,98.26,1011,253,29.77,3586,144,55.28
584,"Nazareth, Barman and Balakrishnan",Reyansh Bail,Mumbai,Maharashtra,19.088251969572976,72.87467437629907,85,3695,263,82.22,3685,93,29.47,4345,404,89.93,752,444,29.02,2270,175,48.31
585,Bath Ltd,Ishita Desai,Hyderabad,Telangana,17.355699257843845,78.4883572628446,74,1904,78,38.07,1731,433,71.66,3935,167,48.73,4633,357,25.78,3783,460,37.87
586,"Lanka, Kade and Saha",Balveer Sundaram,Kolkata,West Bengal,22.60801359976505,88.31884968534936,70,3864,386,34.08,2923,143,40.01,1061,484,23.64,1128,86,79.5,2325,151,71.37
587,"Balasubramanian, Tank and Mann",Chaitaly Suri,Ahmedabad,Gujarat,22.97617213625008,72.53220257541307,85,4790,189,89.3,4075,288,86.92,2921,250,87.65,3976,180,76.95,3823,181,96.07
588,"Mittal, Subramanian and Konda",Rachit Pall,Lucknow,Uttar Pradesh,26.842985195501583,80.94005384885375,59,4482,46,55.53,4761,385,60.98,2635,81,92.9,1486,24,24.67,945,374,36.57
589,"Ravi, Mishra and Setty",Upadhriti Maharaj,Lucknow,Uttar Pradesh,26.826048882320812,80.98937537194328,86,4823,460,30.96,2073,13,30.82,2561,53,85.65,2225,445,64.82,1525,478,76.94
590,Bhasin and Sons,Ekapad Wali,Jaipur,Rajasthan,26.944068217545073,75.7657562301763,58,4513,360,88.98,3408,493,65.68,2680,239,30.24,2593,387,26.77,2271,346,79.39
591,Sagar-Sule,Shivani Merchant,Mumbai,Maharashtra,19.03738383934766,72.86222231428017,73,3592,353,85.29,2125,256,52.63,2460,365,99.83,2201,221,92.3,1859,497,59.85
592,Jani-Oak,Jeevika Setty,Pune,Maharashtra,18.52787795542644,73.80966682230648,84,4659,471,98.71,4498,345,72.92,4379,11,40.69,804,477,92.57,518,84,91.81
593,"Dhawan, Munshi and Nagar",Yashawini Raghavan,Bangalore,Karnataka,12.966659701898314,77.63754266944731,98,2574,487,92.78,4383,185,90.55,3779,208,77.94,4578,396,75.86,1060,363,97.31
594,"Pai, Rastogi and De",Anirudh Patla,Mumbai,Maharashtra,19.064987235294154,72.90068603088486,84,784,351,88.14,4015,344,52.75,4384,164,92.64,2780,425,94.1,971,382,48.98
595,Varma-Cherian,Ekani Bhatnagar,Ahmedabad,Gujarat,23.063261100255655,72.59280326444669,97,1687,188,24.21,3903,399,43.19,3770,365,38.85,4840,48,84.92,527,120,72.08
596,Khurana-Shukla,Ranveer Viswanathan,Mumbai,Maharashtra,19.10837903842213,72.9232060511485,85,4469,415,28.35,2458,206,21.16,1082,293,92.66,3307,333,86.28,1059,128,72.98
597,Loke Group,Mitesh Mandal,Lucknow,Uttar Pradesh,26.868839345110626,80.98248805029125,67,3465,255,65.52,4509,345,65.99,2113,398,44.76,3386,439,65.58,3155,462,52.29
598,Dhaliwal Inc,Nimrat Nagy,Pune,Maharashtra,18.542157212473157,73.88965875568653,98,4819,221,62.52,3235,430,52.18,1601,6,98.11,3954,174,44.48,3736,450,45.34
599,Mannan Group,Gopal Virk,Mumbai,Maharashtra,19.08637954529494,72.89635899134926,88,1283,371,56.64,4991,171,49.97,788,77,42.5,1524,391,37.42,1444,5,94.7
600,"Sahota, Kothari and Dutta",Caleb Dayal,Delhi,Delhi,28.630429210197807,77.23903548790234,81,1449,240,51.74,3674,463,34.63,4359,433,96.27,4812,310,46.18,4448,333,83.2
601,Munshi-Gupta,Azad Jaggi,Hyderabad,Telangana,17.371905302176092,78.44880250004852,73,4439,268,54.5,901,269,54.4,3560,64,24.28,3475,471,70.28,4156,182,29.16
602,Tara PLC,Vedika Handa,Ahmedabad,Gujarat,23.04761780478084,72.52850076645332,72,544,0,65.54,1474,220,98.76,3426,101,76.74,1006,273,33.81,3563,37,29.59
